시설명,주소,구역지정수,시설물 CCTV 수,시설물 도로표지판 수,시설물 과속방지턱 수,보호구역도로폭,사고건수,위도,경도,읍면동
가창초등학교,대구광역시 달성군 가창면 가창로 640 ,1,3,9,0,,0,35.77105069,128.648247,가창면
용계초교병설,대구광역시 달성군 가창면 가창로221길 1 ,0,0,0,0,,0,35.80456757,128.6216025,가창면
용계초등학교,대구광역시 달성군 가창면 가창로221길 1 ,2,3,25,6,,0,35.80456757,128.6216025,가창면
 미리내어린이집,대구광역시 달서구 감삼길 99 (감삼동),0,0,0,0,10,1,35.84998499,128.5433046,감삼동
대구감삼초등학교,대구광역시 달서구 당산로 123 (감삼동),8,4,41,13,6,1,35.84917998,128.5451459,감삼동
대구본리초등학교,대구광역시 달서구 장기로 198 (감삼동),7,4,33,16,8,1,35.84457103,128.5386403,감삼동
무지개어린이집,대구광역시 달서구 감삼남2길 108 (감삼동),2,2,7,2,6,1,35.845311,128.5424424,감삼동
연제어린이집,대구광역시 달서구 감삼남길 49 (감삼동),2,1,9,4,10,0,35.8480268,128.5398261,감삼동
원화유치원,대구광역시 달서구 당산로21안길 49 (감삼동),2,1,8,7,8,1,35.84509678,128.5438481,감삼동
조은어린이집,대구광역시 달서구 당산로45길 95 (감삼동),2,1,9,4,6,2,35.85541593,128.5422125,감삼동
동촌성모유치원,대구광역시 동구 해동로 219 (검사동),1,0,12,2,15,0,35.88620992,128.6533618,동촌동
 예나유치원,"대구광역시 수성구 욱수천로 133 (사월동, 시지2차사월보성타운)",1,1,12,4,15,0,35.840293,128.7162017,고산동
고산초등학교,대구광역시 수성구 달구벌대로 3067 (시지동),3,2,38,14,11,0,35.84395474,128.693198,고산동
고운어린이집,대구광역시 수성구 노변공원로7길 6-24 (노변동),2,1,19,4,10,1,35.83554109,128.6983109,고산동
노변초등학교,대구광역시 수성구 노변공원로 52 (시지동),2,1,39,14,17.5,1,35.83774591,128.6976275,고산동
동산어린이집,대구광역시 수성구 달구벌대로652길 65-6 (욱수동),1,1,11,4,12,1,35.832271,128.710217,고산동
매동초등학교,대구광역시 수성구 천을로31길 16 (매호동),2,4,32,9,10,0,35.84521248,128.709212,고산동
매호초등학교,대구광역시 수성구 달구벌대로647길 30 (매호동),4,3,74,22,12.5,1,35.841593,128.7121173,고산동
무지개유치원,대구광역시 수성구 용학로 197 (지산동),1,1,12,0,16.5,2,35.844469,128.692702,고산동
비안네유치원,대구광역시 수성구 달구벌대로650길 81 (욱수동),2,2,12,3,6,1,35.831299,128.708749,고산동
시지아이숲유치원 ,대구광역시 수성구 달구벌대로625길 25 (시지동),2,1,37,6,16.5,0,35.84429531,128.6994139,고산동
시지어린이집,대구광역시 수성구 고산로 160-15 (매호동),1,1,8,3,11,0,35.84478308,128.707746,고산동
시지초등학교,대구광역시 수성구 달구벌대로631길 17 (매호동),4,4,53,10,15,0,35.843725,128.7031926,고산동
자연누리유치원,대구광역시 수성구 노변로 101 (노변동),1,1,21,4,10.5,1,35.840502,128.7005283,고산동
전원어린이집,대구광역시 수성구 유니버시아드로68길 16 (욱수동),1,1,14,3,5,0,35.82787864,128.706676,고산동
청림초등학교,대구광역시 수성구 고산로 51 (노변동),1,3,16,0,30,0,35.83563518,128.7033769,고산동
하늘유치원,대구광역시 수성구 노변공원로3길 10 (노변동),4,2,13,2,6.5,0,35.840338,128.699972,고산동
향뜰어린이집,대구광역시 수성구 천을로 125 (매호동),1,0,8,6,15,0,35.844194,128.7042808,고산동
 하늘어린이집,대구광역시 북구 고성로34길 90 (고성동1가),4,3,26,7,,0,35.8793927,128.5881726,고성동
아이별어린이집,대구광역시 북구 고성로34길 63 (고성동2가),0,0,0,0,,0,35.8799004,128.5868329,고성동
 지묘어린이집,대구광역시 동구 파계로 117 (지묘동),1,0,7,0,20,0,35.944223,128.6370343,공산동
단비어린이집,대구광역시 동구 팔공로91길 10 (지묘동),2,1,12,3,8,0,35.940566,128.644575,공산동
대구공산초등학교,대구광역시 동구 팔공로197길 35 (백안동),1,2,12,6,8,0,35.9564807,128.6906261,공산동
대구서촌초등학교,대구광역시 동구 파계로 525-11 (중대동),2,0,10,0,20,0,35.98040326,128.6317455,공산동
대구선명학교,대구광역시 동구 팔공산로 225 (덕곡동),2,2,12,2,20,0,35.99718756,128.6137631,공산동
대구지묘초등학교,대구광역시 동구 파계로6길 54-3 (지묘동),5,3,28,11,6,0,35.942816,128.6389777,공산동
위즈숲유치원,대구광역시 동구 파계로19길 12-7 (지묘동),1,0,4,0,6,0,35.94259175,128.6360031,공산동
팔공초등학교,대구광역시 동구 연경지묘로 150 (지묘동),2,0,0,0,20,0,35.9471327,128.6252872,공산동
 환타랜드숲유치원,대구광역시 북구 매천로17길 17-1 (매천동),4,1,4,2,,0,35.90434132,128.5386172,관문동
대구관문초등학교,대구광역시 북구 매전로 32 (매천동),2,1,14,2,,0,35.90869975,128.5461085,관문동
매천초등학교,대구광역시 북구 매천로 179 (매천동),4,6,39,3,,0,35.91332533,128.5410377,관문동
미소담어린이집,대구광역시 북구 매전로4길 10-20 (매천동),6,2,27,9,,0,35.90807568,128.5425981,관문동
사수초등학교,대구광역시 북구 내곡로 124 (사수동),3,4,30,2,,0,35.90014717,128.5152503,관문동
삼영초등학교,대구광역시 북구 내곡로 63 (사수동),0,0,0,0,,0,35.901614,128.5096883,관문동
해성유치원,대구광역시 북구 내곡로 123 (사수동),0,0,0,0,,0,35.89756743,128.5182978,관문동
관음어린이집,대구광역시 북구 관음중앙로22길 3 (관음동),4,2,15,4,,0,35.9432277,128.5456811,관음동
관음초등학교,대구광역시 북구 관음동로17길 16 (관음동),5,3,18,5,,0,35.93992099,128.5471123,관음동
대구관남초등학교,대구광역시 북구 칠곡중앙대로91길 10 (관음동),2,5,15,3,,0,35.93683759,128.5477879,관음동
한별유치원,대구광역시 북구 칠곡중앙대로99길 45-21 (관음동),0,0,0,0,,0,35.94061383,128.5456385,관음동
행복숲유치원,"대구광역시 북구 구암로 17 (관음동, 칠곡2차(수정)한양아파트)",1,1,13,3,,1,35.93664054,128.5429351,관음동
 칠곡한솔유치원,대구광역시 북구 태암로18길 20-7 (구암동),4,4,22,7,,0,35.9259879,128.5550239,구암동
 큰뫼생태어린이집,대구광역시 북구 학정로42길 26-24 (구암동),0,0,0,0,,0,35.9250503,128.5583817,구암동
강북초등학교,대구광역시 북구 구암서로 50 (구암동),3,5,45,8,,0,35.9408343,128.566782,구암동
구암어린이집,대구광역시 북구 구암로42길 13-20 (구암동),3,2,13,2,,0,35.9302986,128.5630209,구암동
구암초등학교,대구광역시 북구 학정로 245 (구암동),4,8,63,15,,0,35.92814416,128.5577585,구암동
아이러브유치원,대구광역시 북구 구암로60길 45-14 (구암동),2,2,11,2,,0,35.9382737,128.5688728,구암동
운암초등학교,대구광역시 북구 대천로 148 (구암동),0,0,0,0,,0,35.93569893,128.5656283,구암동
진성유치원,"대구광역시 북구 구암로 170 (구암동, 칠곡2차한라타운)",0,0,0,0,,0,35.93052009,128.5593829,구암동
채송화유치원,대구광역시 북구 학정로48길 42-6 (구암동),5,6,25,11,,0,35.92723501,128.5605621,구암동
칠곡혜성유치원,대구광역시 북구 학정로42길 40 (구암동),6,5,20,5,,0,35.9267826,128.5589679,구암동
구지세현유치원,대구광역시 달성군 구지면 국가산단대로70길 23 ,0,0,0,0,,1,35.66159725,128.4202023,구지면
구지초등학교,대구광역시 달성군 구지면 창리로11길 45-11 ,6,4,21,3,,0,35.66021157,128.4125564,구지면
대구세현초등학교,대구광역시 달성군 구지면 국가산단대로66길 10 ,7,5,42,2,,1,35.65978473,128.4198073,구지면
 도남초등학교,대구광역시 북구 구리로 202 (국우동),7,3,65,9,,1,35.94865981,128.577122,국우동
 라온제나어린이집,대구광역시 북구 도남길 33-9 (국우동),0,0,0,0,,0,35.9522319,128.5800568,국우동
 리더스유치원,대구광역시 북구 학정동로13길 12 (학정동),5,16,37,15,,1,35.9502955,128.5665514,국우동
 미술관유치원,대구광역시 북구 학남로1길 2-11 (학정동),0,0,0,0,,1,35.9490276,128.5662986,국우동
 반디어린이집,대구광역시 북구 학정동로 84 (학정동),12,3,32,7,,1,35.9512033,128.5682272,국우동
국우초등학교,대구광역시 북구 도남중앙로10길 45 (국우동),4,0,0,0,,0,35.95616,128.5858,국우동
금빛유치원,대구광역시 동구 반야월로 208-1 (동호동),4,2,20,9,8,0,35.87172556,128.711336,국우동
대구가톨릭대학교부설유치원,대구광역시 동구 안심로 300 (동호동),3,1,7,2,20,0,35.865592,128.7176258,국우동
대구동호초등학교,대구광역시 동구 동호로 25 (동호동),1,1,18,2,20,0,35.8653521,128.7204858,국우동
동호어린이집,대구광역시 동구 안심로51길 120 (동호동),0,0,0,0,8,0,35.871609,128.713137,국우동
아름다운유치원,대구광역시 동구 동호로2길 37-17 (동호동),3,1,14,3,,0,35.86536,128.7245,국우동
에트라움어린이집,대구광역시 북구 학남로1길 29 (학정동),0,0,0,0,,0,35.951241,128.566044,국우동
옥스포드유치원,대구광역시 북구 구리로 169 (국우동),0,0,0,0,,0,35.9479921,128.5731257,국우동
학남어린이집,대구광역시 북구 주좌길 34 (학정동),0,0,0,0,,1,35.95070348,128.5692323,국우동
학남초등학교,대구광역시 북구 학정동로 23 (국우동),2,3,23,4,,0,35.9462397,128.5662836,국우동
학정초등학교,대구광역시 북구 학남로 32 (학정동),6,2,28,6,,1,35.94822675,128.568978,국우동
해와달어린이집,대구광역시 북구 도남길 57-1 (국우동),1,2,12,6,,0,35.9540283,128.5805954,국우동
효성유치원,대구광역시 북구 동암로37길 17 (국우동),3,1,13,8,,0,35.9448653,128.5710848,국우동
꿈나무어린이집,대구광역시 중구 남산로1길 46-5 (남산동),2,1,9,3,9,0,35.85848306,128.5805841,남산동
남산교회어린이집,대구광역시 중구 관덕정길 16 (남산동),2,1,12,5,8,0,35.8650401,128.590565,남산동
남산초등학교,대구광역시 중구 남산로 70 (남산동),3,6,62,5,20.5,0,35.863204,128.5827598,남산동
대구삼성어린이집,대구광역시 중구 달구벌대로 2016-40 (남산동),2,1,20,4,7.5,0,35.864469,128.584301,남산동
명덕초등학교,대구광역시 중구 남산로2길 125 (남산동),12,10,88,23,9.5,0,35.85754073,128.5890267,남산동
백합어린이집,대구광역시 중구 남산로4길 111 (남산동),1,0,12,0,10.5,0,35.86232188,128.5860582,남산동
보나유치원,대구광역시 중구 남산로7길 86 (남산동),2,0,0,0,9,0,35.860456,128.579243,남산동
성모유치원,대구광역시 중구 남산로4길 78 (남산동),3,1,25,9,10.5,0,35.86070072,128.5857647,남산동
경운초등학교,대구광역시 서구 평리로54길 16 (내당동),19,7,14,26,10,0,35.86087951,128.552788,내당동
내서초등학교,대구광역시 서구 달구벌대로371길 35 (내당동),13,8,28,20,9,0,35.86381875,128.5667588,내당동
다인어린이집,대구광역시 서구 달서로7길 9 (내당동),4,0,4,2,30,0,35.8649326,128.5700955,내당동
동양유치원,대구광역시 서구 평리로78길 8-12 (내당동),2,1,3,4,7,0,35.8654976,128.5651622,내당동
두류초등학교,대구광역시 서구 달구벌대로357길 22 (내당동),13,5,13,21,8,0,35.8616275,128.559932,내당동
상지유치원,대구광역시 서구 달서로 33 (내당동),7,2,20,7,8,0,35.86586634,128.5703329,내당동
세화유치원,대구광역시 서구 서대구로5길 56 (내당동),6,4,15,6,12,0,35.86000712,128.5504904,내당동
우주과학유치원,대구광역시 북구 오봉로6길 9-1 (노원동1가),3,3,14,2,,0,35.8903643,128.5776159,노원동
남동초등학교,대구광역시 달성군 논공읍 논공로 258 ,4,2,29,0,,0,35.72463823,128.456469,논공읍
논공어린이집,대구광역시 달성군 논공읍 논공로23길 6-15 ,2,1,13,2,,0,35.730295,128.4470703,논공읍
대구금포초등학교,대구광역시 달성군 논공읍 금포초등길 28 ,21,4,63,2,,0,35.77429302,128.4254986,논공읍
대구논공초등학교,대구광역시 달성군 논공읍 논공로7길 41 ,0,0,0,0,,0,35.73103879,128.4376482,논공읍
대구북동초등학교,대구광역시 달성군 논공읍 논공로11길 18 ,15,15,96,22,,0,35.72947978,128.4413202,논공읍
대영유치원,대구광역시 달성군 논공읍 논공중앙로22길 47 ,6,1,17,6,,0,35.72369633,128.4498426,논공읍
스탠포드어린이집,대구광역시 달성군 논공읍 논공로5길 198 ,0,0,0,0,,0,35.73015484,128.446495,논공읍
신영유치원,대구광역시 달성군 논공읍 논공로17길 14 ,0,0,0,0,,0,35.72964561,128.4429589,논공읍
이튼어린이집,대구광역시 달성군 논공읍 논공로17길 16-8 ,0,0,0,0,,0,35.72968405,128.4431574,논공읍
꿈이있는 숲속유치원(꿈숲유치원),대구광역시 달성군 다사읍 다사로 64 ,0,0,0,0,,0,35.86624596,128.4591398,다사읍
대구다사초등학교,대구광역시 달성군 다사읍 다사로 86 ,7,2,18,4,,0,35.8694288,128.4584848,다사읍
대구대실유치원,대구광역시 달성군 다사읍 대실역남로1길 29 ,0,0,0,0,,1,35.85260229,128.4676236,다사읍
대구대실초등학교,대구광역시 달성군 다사읍 대실역남로1길 31 ,6,5,76,16,,1,35.85308854,128.4678979,다사읍
대구도림초등학교,대구광역시 달성군 다사읍 서재로26길 94 ,3,1,47,3,,0,35.878165,128.4997991,다사읍
대구서재초등학교,대구광역시 달성군 다사읍 서재로 100 ,10,6,49,13,,0,35.87192218,128.4983801,다사읍
대구세천초등학교,대구광역시 달성군 다사읍 세천로 182-9 ,2,5,32,4,,0,35.87434699,128.4814697,다사읍
대구아이누리유치원,대구광역시 달성군 논공읍 논공로15길 20-14 ,0,0,0,0,,0,35.86383095,128.4662651,다사읍
대구죽곡초등학교,대구광역시 달성군 다사읍 죽곡1길 18 ,6,7,74,24,,0,35.85679928,128.463332,다사읍
대자연유치원,대구광역시 달성군 다사읍 서재본1길 9-10 ,4,0,0,0,,0,35.873568,128.4950751,다사읍
드림아이유치원,대구광역시 달성군 다사읍 매곡로 92 ,0,0,0,0,,0,35.86816274,128.4557523,다사읍
매곡초등학교,대구광역시 달성군 다사읍 대실역북로3길 6 ,0,0,0,0,,0,35.86224983,128.4681199,다사읍
서동초등학교,대구광역시 달성군 다사읍 서재로7길 55 ,3,2,19,0,,0,35.871804,128.4884318,다사읍
서재성모유치원,대구광역시 달성군 다사읍 서재로20길 28-1 ,0,0,0,0,,0,35.870784,128.4999385,다사읍
세계어린이집,대구광역시 달성군 다사읍 매곡로4길 36 ,0,0,0,0,,0,35.86500199,128.4542579,다사읍
세종유치원,대구광역시 달성군 다사읍 다사로4길 1 ,0,0,0,0,,0,35.86461,128.4603,다사읍
숲속예은유치원,대구광역시 달성군 다사읍 죽곡2길 35 ,0,0,0,0,,0,35.85542956,128.4625278,다사읍
아이엠어린이집,대구광역시 달성군 다사읍 다사로 103-8 ,0,0,0,0,,0,35.86947794,128.4568706,다사읍
어울림유치원,대구광역시 달성군 다사읍 매곡로4길 26-1 ,2,1,4,4,,0,35.86444559,128.4552346,다사읍
왕선초등학교,대구광역시 달성군 다사읍 대실역북로 93 ,10,11,77,15,,0,35.863152,128.465206,다사읍
은초롱어린이집,대구광역시 달성군 다사읍 서재본1길 11 ,0,0,0,0,,0,35.87318281,128.495596,다사읍
죽곡어린이집,대구광역시 달성군 다사읍 달구벌대로174길 17-5 ,0,0,0,0,,0,35.85792905,128.4620448,다사읍
해맑은유치원,대구광역시 달성군 다사읍 왕선로 41 ,0,0,0,0,,0,35.8631537,128.4640509,다사읍
해피아이어린이집,대구광역시 달성군 다사읍 대실역북로 96 ,0,0,0,0,,0,35.86383242,128.4651405,다사읍
 남도초등학교,대구광역시 남구 현충동길 74 (대명동),6,8,85,11,7,3,35.84427387,128.5813642,대명동
 대명초등학교,대구광역시 남구 대명로 100 (대명동),5,9,68,11,8,1,35.83886877,128.5688886,대명동
 성명초등학교,대구광역시 남구 성당로30길 55 (대명동),8,14,43,7,10,1,35.84515216,128.5708254,대명동
가톨릭소화어린이집,대구광역시 남구 현충로39길 74 (대명동),3,3,23,7,7,0,35.85011603,128.5769832,대명동
경북유치원,대구광역시 남구 중앙대로40길 10-1 (대명동),3,3,13,2,7,0,35.84992534,128.5912659,대명동
경상유치원,대구광역시 남구 현충로48길 31-9 (대명동),2,4,33,8,9,0,35.85321709,128.5854639,대명동
계명유치원,대구광역시 남구 명덕로20길 24 (대명동),2,4,18,4,8,0,35.85645873,128.5793986,대명동
남대구초등학교,대구광역시 남구 중앙대로47길 55 (대명동),4,7,47,7,7,0,35.85355805,128.5864853,대명동
남덕초등학교,대구광역시 남구 앞산순환로93길 33 (대명동),12,7,71,14,7,0,35.83304211,128.5739489,대명동
남도어린이집,대구광역시 남구 장전3길 132 (대명동),5,6,41,9,7,1,35.84234083,128.5781777,대명동
남명초등학교,대구광역시 남구 큰골4길 41 (대명동),7,9,68,15,11.5,0,35.8343637,128.5819826,대명동
대덕초등학교,대구광역시 남구 대명서로 28 (대명동),9,16,88,19,11.5,0,35.8304316,128.561677,대명동
동학어린이집,대구광역시 남구 자유5길 16 (대명동),3,4,24,11,7,0,35.83750833,128.5840424,대명동
룸비니유치원,대구광역시 남구 대명남로 140 (대명동),4,3,26,3,13,0,35.83497147,128.5737033,대명동
박애어린이집,대구광역시 남구 대명서2길 45 (대명동),0,0,0,0,8,0,35.83199279,128.5626801,대명동
반야유치원,대구광역시 남구 장전1길 92 (대명동),2,3,21,8,8,0,35.84023286,128.5760702,대명동
보물섬어린이집,대구광역시 남구 대명로49길 9-5 (대명동),2,3,14,4,8,2,35.84228388,128.5824945,대명동
스콜라유치원(구프뢰벨유치원),대구광역시 남구 앞산순환로 467 (대명동),2,3,17,2,,0,35.83248149,128.5760583,대명동
"특수학교(광명,영화,보명,보건,덕희)5개교",대구광역시 남구 성당로50길 33 (대명동),3,5,28,5,7,0,35.85594776,128.575077,대명동
화랑어린이집,대구광역시 남구 두류공원로13길 27-5 (대명동),1,1,5,2,6,0,35.84257212,128.569401,대명동
계성초등학교,대구광역시 중구 달성로 15 (대신동),3,3,39,5,18,0,35.86566471,128.5811278,대신동
 새나래어린이집,"대구광역시 북구 경대로7길 60 (대현동, 성지무궁화아파트)",1,2,7,2,,1,35.88612053,128.6079182,대현동
다인유치원,대구광역시 북구 대현남로 34 (대현동),4,1,50,4,,0,35.88114395,128.607228,대현동
리라어린이집,대구광역시 북구 대현로21길 52 (대현동),1,1,3,2,,1,35.88471833,128.6079209,대현동
신암초등학교,대구광역시 북구 경대로 21 (대현동),5,3,49,1,,0,35.88376396,128.6116222,대현동
혜성어린이집,대구광역시 북구 신천동로148길 55 (대현동),1,2,8,2,,1,35.8841001,128.6050776,대현동
 글로벌씨앤씨어린이집,대구광역시 달서구 월곡로 113-15 (도원동),4,2,13,5,8,1,35.80674904,128.5490396,도원동
노전초등학교,대구광역시 달서구 한실로 43 (도원동),2,1,19,0,25,0,35.80816336,128.5312014,도원동
대곡유치원,대구광역시 달서구 도원로 42 (도원동),0,0,0,0,30,0,35.80600034,128.5352145,도원동
대곡초등학교,대구광역시 달서구 도원남로 60 (도원동),5,5,49,12,25,0,35.8032986,128.5357486,도원동
대구교육대학 부설초등학교,대구광역시 달서구 도원남로 19 (도원동),3,2,27,1,25,1,35.80596789,128.5323817,도원동
도원유치원,대구광역시 달서구 한실로 137 (도원동),1,1,12,0,15,1,35.80474345,128.5421325,도원동
도원초등학교,대구광역시 달서구 도원남로 100-30 (도원동),2,3,33,16,15,1,35.80474345,128.5421325,도원동
해오름유치원,대구광역시 달서구 도원남로 54 (도원동),0,0,0,0,25,0,35.80397398,128.5348468,도원동
동인초등학교,대구광역시 중구 국채보상로 728 (동인동4가),3,5,23,1,10,0,35.86808366,128.6095066,동인동
동평초등학교,대구광역시 북구 동천로 84 (동천동),1,3,19,6,,1,35.93900093,128.5608217,동천동
미래유치원,"대구광역시 북구 팔거천동로 104 (동천동, 칠곡2차보성서한타운)",0,0,0,0,,0,35.93270726,128.5563899,동천동
북부초등학교,대구광역시 북구 동천로 20 (동천동),0,0,0,0,,0,35.9334558,128.559215,동천동
아인슈타인어린이집,대구광역시 북구 동천로 5-13 (동천동),3,2,23,4,,0,35.93229877,128.5569404,동천동
한림유치원,"대구광역시 북구 대천로 101 (동천동, 칠곡3차화성타운)",0,0,0,0,,1,35.93701371,128.5603526,동천동
함지초등학교,대구광역시 북구 동천로 33 (동천동),4,6,42,6,,0,35.93475358,128.5578616,동천동
환타랜드유치원,대구광역시 북구 대천로18길 6 (동천동),4,4,21,5,,0,35.9364615,128.5580673,동천동
대구입석초등학교,대구광역시 동구 아양로 300 (입석동),1,1,21,0,30,0,35.89069277,128.6439976,동촌동
봄어린이집,대구광역시 동구 동촌로11길 5 (입석동),4,2,10,1,6,0,35.889957,128.649666,동촌동
금봉어린이집,대구광역시 달서구 야외음악당로39안길 61 (두류동),1,0,6,2,6,0,35.85183709,128.5522074,두류동
기쁨어린이집,대구광역시 달서구 야외음악당로39길 41 (두류동),3,1,12,3,8,1,35.85384614,128.5543582,두류동
다애어린이집,대구광역시 달서구 명덕로2길 87 (두류동),3,1,12,2,6,0,35.85815248,128.5706752,두류동
대구내당초등학교,대구광역시 달서구 명덕로 22-9 (두류동),6,3,31,12,6,0,35.86063851,128.5723871,두류동
대구성남초등학교,대구광역시 달서구 성당로47길 35 (두류동),5,6,27,10,8,0,35.85332922,128.5722902,두류동
사랑유치원,대구광역시 달서구 야외음악당로41길 68 (두류동),0,0,0,0,6,0,35.8568666,128.5560843,두류동
신흥초등학교,대구광역시 달서구 두류공원로 257 (두류동),5,5,33,6,8,0,35.85636069,128.5563354,두류동
큐리어스어린이집,대구광역시 달서구 당산로30길 42-7 (두류동),1,1,3,1,8,0,35.84727082,128.5514561,두류동
꿈나무어린이집,대구광역시 수성구 들안로2안길 27-15 (두산동),3,2,12,4,6,0,35.832741,128.6192884,두산동
들안길초등학교,대구광역시 수성구 들안로16길 58 (두산동),11,11,79,23,13,1,35.83886793,128.618451,두산동
모란어린이집,대구광역시 수성구 지산로3길 115 (두산동),3,3,13,4,8,0,35.82497799,128.626288,두산동
화니어린이집,대구광역시 수성구 동대구로7길 14-14 (두산동),2,1,11,4,7,0,35.834238,128.622789,두산동
 무열대유치원,대구광역시 수성구 무열로 56 (만촌동),1,0,4,0,14,0,35.86333136,128.6518315,만촌동
김샘학원 ,대구광역시 수성구 달구벌대로525길 6 (만촌동),1,1,5,2,10,0,35.85733531,128.650123,만촌동
뉴대구어린이집,대구광역시 수성구 교학로 54-1 (만촌동),1,0,7,2,8,1,35.85091038,128.6528587,만촌동
대청초등학교,대구광역시 수성구 교학로12길 42 (만촌동),5,5,45,11,10.5,1,35.85090774,128.6501668,만촌동
동문초등학교,대구광역시 수성구 효행로2길 111 (만촌동),5,6,55,15,14,2,35.874856,128.6524257,만촌동
동신유치원,대구광역시 수성구 교학로4길 39 (만촌동),2,2,13,5,7.5,0,35.854779,128.6507608,만촌동
동원초등학교,대구광역시 수성구 국채보상로 1000 (만촌동),2,1,35,4,25,0,35.86486838,128.639886,만촌동
리오바어린이집,대구광역시 수성구 달구벌대로528길 15 (만촌동),1,0,0,4,15,0,35.8552529,128.6496113,만촌동
만촌아이숲유치원,대구광역시 수성구 달구벌대로522길 166 (만촌동),2,2,8,0,6,0,35.851383,128.6441543,만촌동
만촌어린이집,대구광역시 수성구 만촌로14길 11-2 (만촌동),1,2,9,2,8,0,35.865971,128.644057,만촌동
만촌초등학교,대구광역시 수성구 국채보상로214길 33 (만촌동),5,4,39,14,8,0,35.86669044,128.6479211,만촌동
보노유치원,대구광역시 수성구 국채보상로 955-2 (만촌동),2,1,15,0,17,0,35.86791183,128.6353033,만촌동
은성어린이집,대구광역시 수성구 교학로7길 16 (만촌동),1,2,5,1,,1,35.85202,128.653,만촌동
중앙초등학교,대구광역시 수성구 만촌로 125 (만촌동),3,5,35,10,17,0,35.87001293,128.6403507,만촌동
프랜즈유치원,대구광역시 수성구 국채보상로200길 9 (만촌동),2,3,14,7,8,0,35.86536904,128.640441,만촌동
 무태어린이집,대구광역시 북구 서변로3길 79-8 (서변동),8,5,27,2,,0,35.92329453,128.5957434,무태조야동
 튼튼한어린이집,대구광역시 북구 동변로20길 30-1 (동변동),0,0,0,0,,0,35.92309743,128.601318,무태조야동
동변초등학교,대구광역시 북구 동변로 60 (동변동),2,3,43,3,,0,35.91913074,128.6041638,무태조야동
동서변유치원,대구광역시 북구 서변로3길 59 (서변동),0,0,0,0,,0,35.9219561,128.5946241,무태조야동
북구어린이집,대구광역시 북구 환성정길 17-2 (서변동),0,0,0,0,,0,35.922829,128.5945198,무태조야동
새동변어린이집,대구광역시 북구 동변로18길 25 (동변동),1,1,10,2,,0,35.9204179,128.6060865,무태조야동
서변초등학교,대구광역시 북구 호국로43길 35 (서변동),7,6,37,7,,0,35.92075558,128.5950281,무태조야동
성북초등학교,대구광역시 북구 호국로57길 42 (서변동),4,3,32,5,,0,35.92641014,128.5942114,무태조야동
신명유치원,대구광역시 북구 동변로20길 15 (동변동),4,8,18,3,,0,35.9219255,128.6020137,무태조야동
연경초등학교,대구광역시 북구 연경중앙로11길 19 (연경동),5,0,53,4,,0,35.9457235,128.616056,무태조야동
 미키월드랜드어린이집,대구광역시 동구 동촌로45길 39 (방촌동),2,0,8,0,4,0,35.88328972,128.669149,방촌동
꽃동산유치원,대구광역시 동구 동촌로48길 24-7 (방촌동),3,1,12,6,6,0,35.880095,128.665058,방촌동
나현유치원,대구광역시 동구 화랑로88길 90 (방촌동),3,2,20,8,15,0,35.87540844,128.6644884,방촌동
대구동촌초등학교,대구광역시 동구 동촌로 168 (방촌동),2,1,20,1,8,0,35.882087,128.658952,방촌동
대구방촌초등학교,대구광역시 동구 동촌로42길 35-14 (방촌동),4,5,24,5,8,0,35.88065514,128.6630347,방촌동
대구용호초등학교,대구광역시 동구 동촌로56길 82 (방촌동),5,4,30,8,8,1,35.87735702,128.6723772,방촌동
산돌유치원,대구광역시 동구 방촌로17길 26 (방촌동),2,1,6,2,,0,35.88621,128.6637,방촌동
범물초등학교,대구광역시 수성구 지범로41길 33 (범물동),3,5,48,14,13.5,0,35.82148442,128.6448572,범물동
범일초등학교,대구광역시 수성구 범안로4길 22 (범물동),4,5,38,14,10,0,35.81631492,128.6388291,범물동
복명초등학교,대구광역시 수성구 범안로20길 8 (범물동),4,5,28,8,10,1,35.817658,128.647227,범물동
사랑숲유치원,"대구광역시 수성구 용학로 272 (범물동, 범물창신태성한라맨션)",2,2,26,2,15,0,35.82049947,128.6393843,범물동
삼덕유치원,대구광역시 수성구 지범로48길 27 (범물동),3,3,21,5,10,0,35.81448071,128.6438055,범물동
하늘빛유치원,"대구광역시 수성구 지범로40길 11 (범물동, 서한화성아파트)",1,1,7,4,15,0,35.81849094,128.6426091,범물동
 마리아유치원,대구광역시 수성구 범어천로 90 (범어동),4,16,60,14,16.5,1,35.85676822,128.6229808,범어동
경동초등학교,대구광역시 수성구 청호로76길 12 (범어동),3,4,47,11,10,0,35.85220526,128.6393816,범어동
계성어린이집,대구광역시 수성구 범어로 157 (범어동),1,1,17,4,20,0,35.863437,128.635247,범어동
금강 유치원,대구광역시 수성구 동대구로50길 108 (범어동),1,1,3,0,15,0,35.84938355,128.628768,범어동
덕일어린이집,대구광역시 수성구 청호로92길 26 (범어동),2,2,14,4,7,0,35.855408,128.643261,범어동
동도초등학교,대구광역시 수성구 동대구로57길 8 (범어동),5,3,36,6,8,1,35.8570927,128.624038,범어동
동산초등학교,대구광역시 수성구 동대구로42길 29 (범어동),3,5,24,17,9,0,35.849159,128.6280729,범어동
동천초등학교,대구광역시 수성구 상록로16길 20 (범어동),6,5,64,18,13.5,0,35.86584544,128.6252838,범어동
범어유치원,대구광역시 수성구 국채보상로186길 121 (범어동),1,2,8,5,8,0,35.86301225,128.634317,범어동
범어초등학교,대구광역시 수성구 달구벌대로489길 55 (범어동),6,7,53,9,10,0,35.86056415,128.6334733,범어동
아일랜드유치원,대구광역시 수성구 국채보상로 990-10 (범어동),3,3,12,1,6,0,35.86539414,128.638346,범어동
청수유치원,대구광역시 수성구 달구벌대로504길 20 (범어동),1,0,2,0,15,0,35.856896,128.638055,범어동
 경진초등학교,대구광역시 북구 경진로12길 5 (복현동),5,6,39,10,,0,35.89202775,128.6170922,복현동
경전유치원,대구광역시 북구 복현로 11 (복현동),1,3,11,0,,1,35.893506,128.6227636,복현동
다솜유치원,대구광역시 북구 복현로20길 20 (복현동),4,1,13,3,,0,35.9008908,128.6222078,복현동
대구성보학교,대구광역시 북구 동북로71길 9-45 (복현동),1,1,6,2,,0,35.89408427,128.6302775,복현동
문성초등학교,대구광역시 북구 복현로 180 (복현동),6,5,33,4,,0,35.9058108,128.6203544,복현동
복현초등학교,대구광역시 북구 공항로 58 (복현동),3,4,44,5,,0,35.8976053,128.6215383,복현동
세계제일어린이집,대구광역시 북구 복현로20길 73-1 (복현동),3,3,11,1,,0,35.90617,128.6213,복현동
칼라풀어린이집,대구광역시 북구 복현로2길 34 (복현동),2,2,16,4,,1,35.8920708,128.6257607,복현동
 본영어린이집,대구광역시 달서구 와룡로2길 16 (본동),2,0,12,3,8,0,35.83380938,128.5385895,본동
대구남송초등학교,대구광역시 달서구 송현로 192 (본동),4,7,57,9,20,0,35.83490543,128.5453631,본동
 대광어린이집,대구광역시 달서구 용산로4길 32 (본리동),2,2,7,9,6,1,35.83843377,128.532385,본리동
 대구과학어린이집,대구광역시 달서구 와룡로15길 62 (본리동),2,2,12,6,,1,35.83986,128.5336,본리동
덕인초등학교,대구광역시 달서구 대명천로43길 66 (본리동),7,10,29,11,8,1,35.83856881,128.5344708,본리동
롯데가야유치원,"대구광역시 달서구 대명천로 101 (본리동, 본리 롯데캐슬)",2,2,24,8,15,0,35.83903418,128.5471926,본리동
성당초등학교,대구광역시 달서구 대명천로 118 (본리동),4,3,35,8,15,1,35.840575,128.5472918,본리동
스카이유치원,대구광역시 달서구 당산로 12 (본리동),2,1,11,2,,0,35.8386,128.5451,본리동
아이위드유치원,대구광역시 달서구 장기로 173 (본리동),1,1,16,3,15,4,35.84256383,128.5420251,본리동
 효명초등학교,대구광역시 남구 앞산순환로 707 (봉덕동),8,11,79,10,17.5,0,35.83464799,128.6010893,봉덕동
꼬마또래 어린이집,대구광역시 남구 효동2길 16 (봉덕동),0,0,0,0,10,1,35.83768718,128.600747,봉덕동
봉덕초등학교,대구광역시 남구 효성로 71 (봉덕동),8,10,107,15,11.5,1,35.83968058,128.5968435,봉덕동
아름그루 유치원,대구광역시 남구 효동길 91 (봉덕동),0,0,0,0,7,0,35.83634242,128.6010992,봉덕동
아이린유치원,대구광역시 남구 효동길 14 (봉덕동),1,2,14,3,10,1,35.83962775,128.5996262,봉덕동
참좋은 유치원,대구광역시 남구 삼정2길 36 (봉덕동),1,1,6,1,40,1,35.83858034,128.5948414,봉덕동
참좋은어린이집,대구광역시 남구 중앙대로 126 (봉덕동),1,2,15,0,40,0,35.84435136,128.5910004,봉덕동
대구봉무초등학교,대구광역시 동구 팔공로53길 30 (봉무동),2,4,35,0,20,0,35.92580074,128.637412,봉무동
대구불로초등학교,대구광역시 동구 방천로3길 19 (불로동),4,4,19,14,6,0,35.89747918,128.6335014,봉무동
대구영신초등학교,대구광역시 동구 팔공로50길 32 (봉무동),4,0,14,2,8,0,35.92000422,128.646424,봉무동
대구해서초등학교,대구광역시 동구 팔공로 220-4 (봉무동),3,2,37,1,8,0,35.91807126,128.6430531,봉무동
으뜸유치원,대구광역시 동구 위남로2길 38 (봉무동),1,1,9,3,6,0,35.93073599,128.6349831,봉무동
이본유치원,대구광역시 동구 팔공로34길 27 (불로동),2,1,6,0,4,0,35.91440895,128.6442396,봉무동
호수유치원,대구광역시 동구 팔공로68길 4-5 (봉무동),1,0,3,0,8,0,35.92953955,128.642874,봉무동
경북대학교 사범대학 부설초등학교,대구광역시 중구 달구벌대로 2150 (봉산동),2,2,12,2,8,0,35.86358293,128.5980661,성내동
대구초등학교,대구광역시 중구 명륜로23길 80 (봉산동),4,8,45,11,7.5,0,35.8640369,128.5953696,성내동
달서유치원,대구광역시 서구 국채보상로 342 (비산동),7,3,24,6,35,0,35.871551,128.568131,비산동
대성초등학교,대구광역시 서구 국채보상로 426 (비산동),7,8,34,5,35,0,35.87040591,128.5771526,비산동
북비산초등학교,대구광역시 서구 통학로48길 7 (비산동),14,7,22,11,14,0,35.88154552,128.5645921,비산동
비봉초등학교,대구광역시 서구 달서로45길 30 (비산동),16,4,12,14,10,0,35.88276492,128.568631,비산동
서대구초등학교,대구광역시 서구 서대구로63길 28-13 (비산동),13,4,26,14,20,0,35.8894468,128.5577335,비산동
서부초등학교,대구광역시 서구 달서로26길 25 (비산동),15,7,25,23,13,0,35.87387969,128.5737138,비산동
아이성어린이집,대구광역시 서구 국채보상로83길 49 (비산동),5,3,9,1,6,0,35.8756384,128.5761491,비산동
인지초등학교,대구광역시 서구 서대구로66길 20 (비산동),10,2,13,10,8,0,35.88618347,128.5672852,비산동
행복이가득한어린이집,대구광역시 서구 달서천로53길 18 (비산동),7,2,21,7,15,0,35.88566184,128.56224,비산동
 나래영재어린이집,대구광역시 북구 대불서길 18-6 (산격동),0,0,0,0,,0,35.90119246,128.6145454,산격동
 영지어린이집,대구광역시 북구 산격로서9길 6-1 (산격동),3,4,23,4,,0,35.8952123,128.6022434,산격동
대산초등학교,대구광역시 북구 신천동로 900 (산격동),5,3,23,7,,0,35.89611402,128.5931912,산격동
대원유치원,대구광역시 북구 동북로26길 26 (산격동),4,3,17,8,,0,35.89982276,128.6051253,산격동
북대구초등학교,대구광역시 북구 동북로37길 68 (산격동),11,8,42,17,,1,35.90328558,128.6095652,산격동
산격초등학교,대구광역시 북구 산격로10길 14 (산격동),4,3,41,10,,1,35.89455033,128.6063965,산격동
동덕초등학교,대구광역시 중구 동덕로26길 20 (삼덕동2가),3,2,31,1,9,0,35.864739,128.604646,삼덕동
삼덕초등학교,대구광역시 중구 달구벌대로447길 10 (삼덕동3가),3,5,29,4,6,0,35.863588,128.6078431,삼덕동
상동어린이집,대구광역시 수성구 수성로32길 139 (상동),4,1,10,2,6,0,35.835277,128.612646,상동
수성초등학교,대구광역시 수성구 상화로5길 40 (상동),4,2,37,13,7.5,0,35.83721988,128.6105947,상동
 가톨릭소화어린이집,대구광역시 달서구 월곡로51길 77 (상인동),6,4,21,3,10,0,35.81473892,128.5362016,상인동
 동심어린이집,대구광역시 달서구 상화로51길 14 (상인동),0,0,0,0,,1,35.80953,128.5425,상인동
 문화어린이집,대구광역시 달서구 송현로7길 51-16 (상인동),3,0,10,3,,0,35.81851,128.5473,상인동
개미유치원,대구광역시 달서구 상원로3길 19-5 (상인동),5,1,10,6,6,0,35.81100225,128.5353256,상인동
대구상원유치원,대구광역시 달서구 학산남로 34 (상인동),0,0,0,0,20,2,35.82283958,128.5367112,상인동
대구월서초등학교,대구광역시 달서구 월배로39길 46 (상인동),6,4,56,11,8,2,35.82174515,128.5318133,상인동
대서초등학교,대구광역시 달서구 송현로 9 (상인동),1,0,0,0,20,0,35.82006524,128.5499599,상인동
마야유치원,대구광역시 달서구 상인로26길 20 (상인동),1,1,8,5,10,0,35.81770549,128.5459171,상인동
보성은하유치원,"대구광역시 달서구 월곡로 320 (상인동, 보성은하아파트)",0,0,0,0,20,4,35.82358041,128.5342978,상인동
상원초등학교,대구광역시 달서구 월곡로20길 15 (상인동),7,7,36,11,8,1,35.80636651,128.5506746,상인동
상인초등학교,대구광역시 달서구 월곡로 211 (상인동),3,3,26,10,8,2,35.81293412,128.5426752,상인동
상화유치원,"대구광역시 달서구 상인서로 76 (상인동, 상인영남화성타운)",2,1,13,3,,2,35.81756,128.5432,상인동
월곡초등학교,대구광역시 달서구 상인로 40 (상인동),2,2,18,3,20,0,35.81216502,128.5492651,상인동
월촌초등학교,대구광역시 달서구 상인서로 60 (상인동),2,3,16,4,15,2,35.81635648,128.543274,상인동
플레이키즈어린이집,대구광역시 달서구 월곡로26안길 17-7 (상인동),1,1,4,0,,1,35.80915,128.5503,상인동
하나렘어린이집,대구광역시 달서구 월배로 235 (상인동),1,2,11,0,35,0,35.81996355,128.5388941,상인동
달서초등학교,대구광역시 서구 국채보상로34길 35 (중리동),20,7,45,17,26,0,35.8668447,128.5505173,상중이동
대구근로복지공단어린이집,대구광역시 서구 서대구로17길 28 (중리동),7,3,9,4,10,0,35.865136,128.552628,상중이동
서대구공단어린이집,대구광역시 서구 평리로35길 10 (중리동),7,1,12,4,12,0,35.860846,128.5435966,상중이동
영재어린이집,대구광역시 서구 평리로 146 (중리동),5,0,15,2,24,1,35.85854025,128.5403882,상중이동
YMCA유치원,대구광역시 중구 중앙대로 375 (덕산동),1,1,12,0,8.5,0,35.866686,128.593173,성내동
대구화교초등학교,대구광역시 중구 종로 34 (남일동),1,0,6,1,12,0,35.868893,128.5918827,성내동
숙천초등학교,대구광역시 동구 숙천로 17 (숙천동),4,4,50,3,8,0,35.87632564,128.7530358,성내동
원만사유치원,대구광역시 중구 달구벌대로 2013 (동산동),1,1,9,0,43.5,0,35.8658472,128.58387,성내동
종로초등학교,대구광역시 중구 경상감영길 49 (서문로1가),3,3,36,6,9,0,35.87249623,128.5897066,성내동
달서어린이집,대구광역시 달서구 대명천로8길 10 (성당동),2,1,11,3,8,0,35.83923761,128.5558724,성당동
대구남부초등학교,대구광역시 달서구 야외음악당로15길 46 (성당동),5,5,37,12,8,0,35.84443849,128.5499641,성당동
동해유치원,대구광역시 달서구 장기로 50 (성당동),2,2,14,3,25,0,35.8432168,128.5549372,성당동
파프리카유치원,대구광역시 달서구 대명천로21길 10 (성당동),1,1,5,4,6,0,35.83899766,128.5492888,성당동
한글나라어린이집,대구광역시 달서구 야외음악당로9길 34 (성당동),2,0,6,4,,0,35.84142,128.5509,성당동
 동그라미유치원,대구광역시 달서구 중흥로8길 50 (송현동),3,1,12,6,10,0,35.82909768,128.5540861,송현동
가나유치원,대구광역시 달서구 송현로7길 15 (상인동),2,3,24,4,,0,35.82353,128.5454,송현동
대남초등학교,대구광역시 달서구 월배로68길 91 (송현동),9,9,85,27,10,0,35.82418641,128.5517497,송현동
리라유치원,대구광역시 달서구 앞산순환로 225 (송현동),1,2,5,0,35,0,35.82397008,128.5537072,송현동
멘사창의유치원,대구광역시 달서구 송현로8길 92 (송현동),2,2,9,3,,0,35.82557,128.5515,송현동
문화유치원,대구광역시 달서구 월배로83길 120-11 (송현동),3,2,10,4,6,0,35.83264361,128.5452448,송현동
소망어린이집,대구광역시 달서구 앞산순환로61길 68 (송현동),3,3,11,5,8,0,35.83077848,128.5588127,송현동
송현초등학교,대구광역시 달서구 송현로 128 (송현동),7,8,36,20,20,0,35.82868737,128.5448304,송현동
예현유치원,대구광역시 달서구 월배로75길 78 (송현동),2,3,13,5,10,0,35.83085801,128.5474352,송현동
큰사랑어린이집,대구광역시 달서구 월배로75길 132 (송현동),2,2,26,7,8,0,35.83342657,128.5474861,송현동
한국어린이집,대구광역시 달서구 중흥로8길 112 (송현동),2,2,12,6,10,0,35.82683456,128.5521334,송현동
효성초등학교,대구광역시 달서구 송현로 81 (송현동),2,1,19,0,20,0,35.82406479,128.5429839,송현동
 코오롱아인슈타인유치원,"대구광역시 수성구 수성로 412 (수성동4가, 수성보성타운)",1,2,15,8,20,0,35.861991,128.6144895,수성동
DGB아이꿈터어린이집,대구광역시 수성구 달구벌대로 2271-5 (수성동4가),2,3,15,3,8,0,35.860973,128.6108859,수성동
금강어린이집,대구광역시 수성구 수성로75길 24 (수성동1가),3,1,9,6,7.5,0,35.857311,128.612566,수성동
동성초등학교,대구광역시 수성구 수성로 311 (수성동1가),2,4,27,3,19,0,35.85344576,128.6127129,수성동
동일초등학교,대구광역시 수성구 들안로 311 (수성동2가),2,5,25,4,26,0,35.8581009,128.6168809,수성동
수성어린이집,대구광역시 수성구 명덕로76길 80-1 (수성동1가),1,1,10,1,8,0,35.851047,128.611237,수성동
수성영희어린이집,대구광역시 수성구 신천동로86길 25 (수성동4가),2,1,16,4,7,0,35.86168383,128.6117861,수성동
수성유치원,대구광역시 수성구 신천동로96길 45 (수성동4가),3,2,14,4,8,0,35.86477932,128.6161398,수성동
신세계유치원,대구광역시 수성구 신천동로62길 17 (수성동1가),1,2,9,3,8,0,35.852548,128.6099755,수성동
수창초등학교,대구광역시 중구 달성로22길 30 (수창동),7,12,77,30,18.5,0,35.8742603,128.5834453,성내동
대구호산초등학교,대구광역시 달서구 달서대로109길 116 (호산동),3,3,35,1,20,0,35.84907047,128.4790049,신당동
신당초등학교,대구광역시 달서구 서당로 14 (신당동),2,2,16,7,20,1,35.85329967,128.496288,신당동
신서초등학교,대구광역시 달서구 계대동문로3길 46 (신당동),12,6,30,11,10,1,35.85799273,128.4947454,신당동
우정유치원,대구광역시 달서구 선원로14길 10 (신당동),3,1,12,2,8,0,35.85859122,128.4990642,신당동
은초롱유치원,대구광역시 달서구 서당로7길 93 (신당동),3,3,14,5,10,2,35.85425496,128.4938553,신당동
파호초등학교,대구광역시 달서구 달서대로109안길 76 (호산동),3,5,18,7,15,0,35.85058152,128.4815078,신당동
행복나무유치원,대구광역시 달서구 성서서로73길 68 (신당동),1,1,5,1,6,1,35.85821036,128.496413,신당동
혜민어린이집,대구광역시 달성군 화원읍 명천로 231 (명곡미래빌 2단지),0,0,0,0,,0,35.84813,128.4836,신당동
강남유치원,대구광역시 동구 신암로18길 19 (신암동),2,2,22,4,8,0,35.877706,128.612603,신암동
꿈꽃어린이집,대구광역시 동구 송라로 110 (신암동),1,0,6,0,8,0,35.876872,128.616848,신암동
대구덕성초등학교,대구광역시 동구 아양로34길 50 (신암동),3,2,18,5,6,0,35.88210504,128.6284765,신암동
대구동부초등학교,대구광역시 동구 신암북로7길 22 (신암동),4,4,25,4,6,0,35.88802582,128.6198324,신암동
대구동신초등학교,대구광역시 동구 송라로 123 (신암동),4,7,59,12,8,0,35.87827534,128.6150277,신암동
대구신성초등학교,대구광역시 동구 동북로71길 29 (신암동),4,3,31,12,6,0,35.89012297,128.6289427,신암동
대구아양초등학교,대구광역시 동구 아양로 221 (신암동),2,1,15,1,8,0,35.88746268,128.6374338,신암동
동구청어린이집,대구광역시 동구 신암남로 175-1 (신암동),2,1,12,3,10,0,35.88768898,128.636004,신암동
동대구초등학교,대구광역시 동구 신암남로 45 (신암동),4,8,37,6,8,0,35.87969333,128.62097,신암동
사과나무유치원,대구광역시 동구 아양로8길 31-4 (신암동),0,0,0,0,6,0,35.87987577,128.620657,신암동
온뜨레피움어린이집,대구광역시 동구 아양로 213-6 (신암동),1,0,4,0,6,0,35.88711021,128.6367229,신암동
행복유치원,대구광역시 동구 신암북로7길 75 (신암동),2,3,5,4,8,0,35.888735,128.617919,신암동
대구신천초등학교,대구광역시 동구 송라로6길 5 (신천동),7,5,55,4,6,1,35.871649,128.6210093,신천동
대구효신초등학교,대구광역시 동구 동부로34길 70 (신천동),2,5,20,5,6,0,35.87267001,128.6321105,신천동
예일어린이집,대구광역시 동구 동부로 67-1 (신천동),1,0,6,0,6,0,35.875539,128.619791,신천동
청구어린이집,대구광역시 동구 송라로 3-6 (신천동),1,1,10,2,6,0,35.86847567,128.618421,신천동
청산어린이집,대구광역시 동구 송라로3길 13-3 (신천동),1,0,9,2,8,0,35.869435,128.619153,신천동
키즈오르다어린이집,대구광역시 동구 국채보상로165길 31 (신천동),1,0,9,2,,0,35.8697,128.6158,신천동
하나린어린이집,대구광역시 동구 신암로12길 53 (신천동),1,1,12,1,6,0,35.87542121,128.6118783,신천동
 자연동화유치원,대구광역시 동구 안심로51길 13-2 (서호동),0,0,0,0,8,1,35.86684127,128.712357,안심동
단비유치원,"대구광역시 수성구 신매로 51 (신매동, 시지천마타운)",1,1,20,6,18,0,35.83447236,128.7060699,안심동
대구강동초등학교,대구광역시 동구 동호로7길 17 (신서동),3,2,18,4,8,1,35.86809748,128.7302386,안심동
대구반야월초등학교,대구광역시 동구 안심로49길 70 (서호동),2,2,13,5,6,1,35.86827367,128.7107622,안심동
대구새론초등학교,대구광역시 동구 과학로13길 5 (각산동),2,2,24,0,8,0,35.88380453,128.717223,안심동
대구송정초등학교,대구광역시 동구 안심로90길 9 (괴전동),4,10,45,4,8,0,35.87060736,128.7340267,안심동
더플로우유치원,대구광역시 동구 반야월북로 189-30 (각산동),2,1,21,4,,0,35.87588,128.7188,안심동
무산유치원,대구광역시 동구 경안로103길 31 (서호동),6,4,20,17,8,1,35.868034,128.712183,안심동
사월초등학교,대구광역시 수성구 달구벌대로656길 46 (신매동),1,2,20,6,18.5,0,35.83405266,128.7150423,안심동
소명어린이집,대구광역시 동구 율하동로28길 39 (신기동),1,1,6,3,8,0,35.871458,128.7070186,안심동
수피아어린이집,대구광역시 동구 메디밸리로8길 11 (사복동),0,0,0,0,12,0,35.87587974,128.75082,안심동
수피아유치원,대구광역시 동구 메디밸리로8길 11 (사복동),0,0,0,0,12,0,35.87587974,128.75082,안심동
신매초등학교,대구광역시 수성구 달구벌대로650길 26 (신매동),3,4,37,18,14.5,1,35.83660884,128.709212,안심동
싱어송유치원,대구광역시 동구 신서로 71-52 (각산동),1,0,4,1,4,0,35.875051,128.721113,안심동
아인유치원,대구광역시 동구 화랑로 558 (용계동),1,0,2,0,30,0,35.87433428,128.684644,안심동
에벤에셀유치원,대구광역시 동구 금강로16길 25-12 (신서동),3,1,7,7,8,0,35.86436912,128.732369,안심동
예뜰유치원,대구광역시 동구 반야월북로55길 43 (신서동),2,1,10,3,,0,35.87493,128.7306,안심동
예쁜손어린이집,대구광역시 동구 율하동로26길 22 (신기동),2,2,12,5,,0,35.87229,128.7031,안심동
온누리유치원,대구광역시 동구 안심로7길 21 (용계동),1,1,6,4,12,0,35.87241375,128.693319,안심동
욱수초등학교,대구광역시 수성구 신매로 20 (신매동),6,4,49,23,14,1,35.83137816,128.7077006,안심동
정원유치원,대구광역시 동구 이노밸리로29길 76 (각산동),2,2,28,1,7,0,35.88593571,128.7137965,안심동
천사유치원,"대구광역시 수성구 신매로 91 (신매동, 시지삼주한라협화타운)",1,1,30,6,20,1,35.83749115,128.7069579,안심동
키즈로스쿨어린이집,대구광역시 동구 반야월로26길 61-2 (신기동),1,0,4,0,6,0,35.870227,128.701366,안심동
대구강림초등학교,대구광역시 달성군 옥포읍 돌미로 15 ,8,1,23,0,,0,35.78124474,128.436759,옥포읍
대구금계초등학교,대구광역시 달성군 옥포읍 금계길 55 ,4,5,42,2,,0,35.78883806,128.443791,옥포읍
반송초등학교,대구광역시 달성군 옥포읍 용연사길 5 ,3,1,18,4,,0,35.75661793,128.4946927,옥포읍
신솔정유치원,대구광역시 달성군 옥포읍 비슬로455길 24 ,2,3,19,10,,0,35.791737,128.4687743,옥포읍
예아람학교,대구광역시 달성군 옥포읍 비슬로 1934 ,0,0,0,0,,0,35.78006732,128.4343568,옥포읍
옥빛유치원,대구광역시 달성군 옥포읍 돌미로2서길 20 ,0,0,0,0,,0,35.77889598,128.4364841,옥포읍
옥포예일유치원,대구광역시 달성군 옥포읍 법화길 61 ,1,0,12,2,,0,35.78659013,128.4462115,옥포읍
옥포초등학교,대구광역시 달성군 옥포읍 비슬로 2220 ,2,4,21,0,,0,35.78778718,128.4641599,옥포읍
 자연과학유치원,대구광역시 달서구 성지로16길 41 (용산동),6,3,12,4,6,1,35.85689206,128.5223818,용산동
가야유치원,"대구광역시 달서구 성서동로 350 (용산동, 평화타운)",0,0,0,0,30,0,35.85114028,128.5164431,용산동
대구성지초등학교,대구광역시 달서구 새동네로 27 (용산동),2,2,33,9,20,0,35.85329006,128.5187152,용산동
대구세명학교,대구광역시 달서구 새방로 62 (용산동),1,1,9,0,30,0,35.86341822,128.5243182,용산동
더좋은유치원,"대구광역시 달서구 선원로 241 (용산동, 성서2차보성타운)",1,1,7,0,,1,35.85968,128.5184,용산동
선원초등학교,대구광역시 달서구 선원로33길 105 (용산동),3,2,19,5,12,0,35.86108823,128.5155245,용산동
선혜유치원,대구광역시 달서구 선원로57길 17 (용산동),5,1,16,3,8,0,35.86008631,128.5236318,용산동
성산초등학교,대구광역시 달서구 선원남로 173 (용산동),0,0,0,0,25,1,35.85789855,128.5189229,용산동
용산유치원,대구광역시 달서구 선원로55길 11-8 (용산동),4,2,10,2,6,0,35.85948655,128.5226867,용산동
용산초등학교,대구광역시 달서구 와룡로49길 80 (용산동),6,3,40,21,6,1,35.85522492,128.5320158,용산동
용전초등학교,대구광역시 달서구 용산로 260 (용산동),3,2,34,10,20,0,35.86109075,128.5312555,용산동
은하수어린이집,대구광역시 달서구 달구벌대로301길 58 (용산동),2,1,10,3,10,0,35.85234239,128.532161,용산동
은혜어린이집,대구광역시 달서구 선원로53길 34-10 (용산동),1,1,4,2,6,0,35.86015477,128.5223989,용산동
장산초등학교,대구광역시 달서구 장산로 30 (용산동),3,3,24,1,30,0,35.85483742,128.5265307,용산동
한솔어린이집,대구광역시 달서구 성지로16길 69-6 (용산동),2,2,8,1,6,1,35.8578109,128.5225034,용산동
달성초등학교,대구광역시 서구 고성로 127 (원대동1가),33,14,57,19,15,0,35.88281761,128.5792117,원대동
성산어린이집,대구광역시 서구 옥산로6길 9 (원대동3가),3,4,11,7,8,0,35.885754,128.578864,원대동
 하늘꿈어린이집,대구광역시 달서구 조암로14안길 18-9 (월성동),2,1,11,4,6,0,35.82400034,128.5207155,월성동
대구감천초등학교,대구광역시 달서구 구마로12길 60 (월성동),4,5,38,12,15,0,35.83526704,128.5330982,월성동
대구월암초등학교,대구광역시 달서구 조암로6길 55 (월성동),6,11,98,17,10,2,35.828572,128.5217032,월성동
대구한샘초등학교,대구광역시 달서구 월배로11길 42 (대천동),3,3,29,8,20,3,35.81699982,128.5188133,월성동
라온어린이집,대구광역시 달서구 조암남로14길 57 (월성동),1,0,3,2,8,2,35.82332367,128.525094,월성동
상원어린이집,대구광역시 달서구 조암로 89-23 (월성동),0,0,0,0,8,0,35.82250939,128.5216688,월성동
성서어린이집,대구광역시 달서구 성서서로 89 (월암동),2,1,10,0,,0,35.83312,128.4999,월성동
솔리유치원,대구광역시 달서구 조암남로19길 11 (월성동),0,0,0,0,8,1,35.81935795,128.5229983,월성동
송일초등학교,대구광역시 달서구 학산로2길 38 (월성동),2,4,25,7,15,4,35.82411883,128.5328131,월성동
신월초등학교,대구광역시 달서구 조암남로 100 (월성동),8,3,27,9,20,1,35.82059631,128.5224969,월성동
썸머힐어린이집,대구광역시 달서구 조암남로27길 10 (대천동),1,1,4,0,8,3,35.81744454,128.5194445,월성동
월서유치원,대구광역시 달서구 조암남로16길 34 (월성동),3,3,11,3,25,0,35.822893,128.5225789,월성동
월성아이세상어린이집,대구광역시 달서구 조암남로10길 42 (월성동),3,1,17,8,8,2,35.82283274,128.5260536,월성동
월성초등학교,대구광역시 달서구 학산로7길 26 (월성동),0,0,0,0,20,1,35.8310902,128.5318969,월성동
이노유치원,대구광역시 달서구 조암남로20길 54 (월성동),0,0,0,0,8,0,35.82184592,128.5211982,월성동
조암초등학교,대구광역시 달서구 조암로5길 19 (월성동),4,8,41,8,10,2,35.82408224,128.5284353,월성동
학산초등학교,대구광역시 달서구 월성로 76 (월성동),0,0,0,0,15,0,35.83110683,128.5260862,월성동
대구비슬초등학교,대구광역시 달성군 유가읍 테크노북로 144 ,4,9,65,0,,2,35.69605694,128.458744,유가읍
대구유가초등학교,대구광역시 달성군 유가읍 테크노대로5길 34 ,3,2,55,0,,2,35.69223444,128.4677385,유가읍
테크노초등학교,대구광역시 달성군 유가읍 현풍로 245 ,7,0,0,0,,0,35.70006861,128.4634402,유가읍
대구안일초등학교,대구광역시 동구 율하동로23길 66 (율하동),2,2,40,3,8,0,35.871415,128.6952236,안심동
대구율금초등학교,대구광역시 동구 안심로16길 70 (율하동),5,5,61,5,20,1,35.86188781,128.6918367,안심동
대구율원초등학교,대구광역시 동구 율하동로 55 (율하동),2,3,21,1,30,1,35.864894,128.700743,안심동
율빛유치원,대구광역시 동구 율하서로3길 45 (율하동),0,0,0,0,,0,35.86078,128.6881,안심동
율하유치원,대구광역시 동구 안심로16길 19 (율하동),1,1,6,0,8,1,35.86633074,128.694752,안심동
율하초등학교,대구광역시 동구 율하동로15길 1 (율하동),6,4,36,8,6,1,35.86781358,128.7015369,안심동
키즈하버드어린이집,대구광역시 동구 율하동로8길 75 (율하동),0,0,0,0,8,1,35.864335,128.701941,안심동
파란하늘유치원,대구광역시 동구 금호강변로3길 14 (율하동),3,2,20,0,,0,35.86937,128.6891,안심동
 사랑어린이집,대구광역시 북구 칠곡중앙대로126길 3 (읍내동),0,0,0,0,,0,35.9511061,128.553947,읍내동
교동초등학교,대구광역시 북구 관음중앙로34길 4 (읍내동),4,3,22,10,,0,35.9447886,128.5494726,읍내동
대천초등학교,대구광역시 북구 구암로21길 54 (읍내동),3,3,21,4,,0,35.93721038,128.554364,읍내동
반디유치원,대구광역시 북구 관음동로32길 6-13 (읍내동),1,3,7,2,,0,35.9461262,128.5477343,읍내동
삼성유치원,대구광역시 북구 동암로 21-19 (읍내동),7,6,41,8,,0,35.9474763,128.5535989,읍내동
새솔유치원,"대구광역시 북구 동암로7길 39 (읍내동, 칠곡한서타운)",1,2,7,7,,0,35.94955113,128.5555721,읍내동
예일유치원,"대구광역시 북구 대천로7길 40 (읍내동, 칠곡산호한양아파트)",0,0,0,0,,0,35.94103818,128.5557731,읍내동
움사랑생태어린이집,대구광역시 북구 칠곡중앙대로86길 17-1 (읍내동),3,2,17,2,,0,35.9343405,128.5503227,읍내동
정원어린이집,대구광역시 북구 칠곡중앙대로126길 21-24 (읍내동),0,0,0,0,,0,35.94901771,128.555012,읍내동
칠곡초등학교,대구광역시 북구 칠곡중앙대로110길 5 (읍내동),7,10,71,22,,0,35.94517034,128.5517715,읍내동
태전초등학교,대구광역시 북구 칠곡중앙대로75길 16 (태전동),9,10,40,12,,0,35.97397,128.5345,읍내동
 아이세상유치원,대구광역시 달서구 선원로37남길 13 (이곡동),5,1,16,6,8,0,35.85954502,128.5133311,이곡동
난나유치원,"대구광역시 달서구 성서서로 330 (이곡동, 성서청남타운)",2,1,9,1,30,0,35.85406557,128.5003974,이곡동
성곡초등학교,대구광역시 달서구 선원남로 127 (이곡동),2,8,33,13,25,0,35.85809784,128.5135151,이곡동
성서초등학교,대구광역시 달서구 달구벌대로 1339 (이곡동),3,3,16,3,50,0,35.85196007,128.5144445,이곡동
와룡초등학교,대구광역시 달서구 선원남로 22 (이곡동),1,2,12,4,25,0,35.85706992,128.5018556,이곡동
이곡초등학교,대구광역시 달서구 선원남로 120 (이곡동),0,0,0,0,25,0,35.85684832,128.5137344,이곡동
청아어린이집,대구광역시 달서구 이곡공원로1길 16 (이곡동),2,1,8,1,6,0,35.85620463,128.5082718,이곡동
코끼리어린이집,대구광역시 달서구 성서로72길 97-11 (이곡동),1,1,5,1,,0,35.84998,128.5128,이곡동
큰별어린이집,대구광역시 달서구 선원로23북길 16-10 (이곡동),1,0,4,2,6,0,35.86111393,128.5046831,이곡동
토마토어린이집,대구광역시 달서구 성서동로65길 24 (이곡동),2,0,7,5,8,0,35.85029219,128.5145444,이곡동
한솔유치원,"대구광역시 달서구 이곡동로 32 (이곡동, 성서와룡타운)",2,2,17,3,20,1,35.85286261,128.512059,이곡동
 대봉초등학교,대구광역시 남구 대봉로26길 33 (이천동),3,7,55,8,12.5,1,35.85166437,128.6048051,이천동
더플로우어린이집,대구광역시 남구 대봉로30길 40 (이천동),1,3,10,2,8,0,35.85214855,128.605307,이천동
드림유치원,대구광역시 남구 대봉로30길 36-8 (이천동),0,0,0,0,8,0,35.85170781,128.6051265,이천동
영선초등학교,대구광역시 남구 영선길 96 (이천동),7,11,63,23,8,0,35.85290101,128.5960142,이천동
청동어린이집,대구광역시 남구 이천로28길 42-33 (이천동),1,3,5,3,6,0,35.85359762,128.6000087,이천동
호동어린이집,대구광역시 남구 희망로5길 19 (이천동),2,5,22,6,12.5,0,35.84884861,128.600145,이천동
중리초등학교,대구광역시 서구 국채보상로 135 (이현동),9,2,28,2,35,1,35.86971383,128.5454299,상중이동
대구장동초등학교,대구광역시 달서구 달구벌대로304길 112 (장기동),4,3,17,6,15,1,35.84478484,128.5317635,장기동
대구장성초등학교,대구광역시 달서구 달구벌대로 1429-11 (장기동),6,13,48,19,8,0,35.85035905,128.5232345,장기동
성서예능어린이집,대구광역시 달서구 달구벌대로283길 26 (장기동),0,0,0,0,,0,35.85195,128.5227,장기동
우리아이어린이집,대구광역시 달서구 용산로14길 39 (장기동),1,1,6,2,8,0,35.84313621,128.5329738,장기동
장기초등학교,대구광역시 달서구 장기로 280 (장기동),2,3,24,4,20,0,35.84439346,128.5290637,장기동
하늘정원유치원,"대구광역시 달서구 한들로 70 (장기동, 장기파랑새마을)",0,0,0,0,20,0,35.84660805,128.5264656,장기동
대구예술어린이집,대구광역시 달서구 죽전1안길 14 (죽전동),2,1,6,0,6,0,35.85282869,128.5403127,죽전동
대구죽전초등학교,대구광역시 달서구 죽전길 127 (죽전동),6,7,28,15,10,1,35.85778773,128.5399257,죽전동
리리유치원,대구광역시 수성구 신천동로34길 19 (중동),3,2,22,7,8,0,35.84040378,128.608955,중동
삼육초등학교,대구광역시 수성구 청수로 22-23 (중동),1,1,13,4,6.5,0,35.83976557,128.610697,중동
중동어린이집,대구광역시 수성구 희망로 121 (중동),1,3,9,0,26.5,0,35.84762097,128.612134,중동
 지산어린이집,대구광역시 수성구 지산로14길 29 (지산동),1,1,12,6,13,1,35.827079,128.635668,지산동
대구남양학교,대구광역시 수성구 무학로37안길 6 (지산동),5,5,40,9,9,0,35.834025,128.629108,지산동
두산초등학교,대구광역시 수성구 동대구로6길 31 (지산동),6,8,45,13,9,0,35.83259685,128.6260882,지산동
용지초등학교,대구광역시 수성구 지산로 12 (지산동),5,2,36,8,20,2,35.822008,128.632722,지산동
제일어린이집,대구광역시 수성구 용학로30길 82 (지산동),1,1,3,1,,1,35.82168,128.6296,지산동
지봉초등학교,대구광역시 수성구 지범로31길 45 (지산동),3,3,31,12,10,0,35.82546519,128.6408054,지산동
지산초등학교,대구광역시 수성구 지범로17길 3-14 (지산동),6,4,21,6,8.5,0,35.82695807,128.6301691,지산동
한국예술유치원,대구광역시 수성구 용학로34길 8 (지산동),2,1,13,4,8,0,35.822092,128.6270903,지산동
 사랑마을유치원,대구광역시 달서구 상화북로 7 (진천동),0,0,0,0,8,0,35.80997304,128.527573,진천동
 아이캔유치원,대구광역시 달서구 비슬로 2728-16 (대곡동),2,2,11,3,10,0,35.80876662,128.5148179,진천동
대곡가야유치원,대구광역시 달서구 비슬로538길 7 (대곡동),2,2,13,7,8,0,35.80770731,128.5096029,진천동
대구용천초등학교,대구광역시 달서구 조암남로32길 55 (유천동),2,3,26,5,15,1,35.81972464,128.5125985,진천동
대구유천초등학교,대구광역시 달서구 달서대로 39 (유천동),5,3,40,9,12,2,35.81257393,128.5118548,진천동
대구진월초등학교,대구광역시 달서구 진천로4길 32 (진천동),4,7,42,15,8,0,35.81090267,128.5282878,진천동
대구한솔초등학교,대구광역시 달서구 조암남로 172-13 (유천동),2,3,28,6,12,4,35.81656683,128.5156958,진천동
대구한실초등학교,대구광역시 달서구 한실로6길 108 (대곡동),5,2,25,8,10,0,35.79831438,128.5285689,진천동
대진초등학교,대구광역시 달서구 상화로 70 (대곡동),4,4,28,6,12,2,35.80662752,128.5217528,진천동
명지유치원,대구광역시 달서구 월배로28길 84 (진천동),4,2,10,7,6,0,35.81332941,128.5329179,진천동
사랑마을어린이집,대구광역시 달서구 진천로10길 12 (진천동),1,1,5,3,8,0,35.81303824,128.5253691,진천동
상록수어린이집,대구광역시 달서구 월배로23길 51 (진천동),2,0,8,3,8,1,35.81687806,128.5253391,진천동
아이비어린이집,대구광역시 중구 남산로3안길 20 (남산동),2,1,7,3,8,0,35.80990595,128.5243747,진천동
아이비어린이집,대구광역시 달서구 진천로3길 31 (진천동),2,2,10,0,8,0,35.80990595,128.5243747,진천동
월배어린이집,대구광역시 달서구 상화로9길 102-10 (진천동),4,2,12,4,6,1,35.81250737,128.5210278,진천동
월배유치원,대구광역시 달서구 월배로 149-7 (진천동),0,0,0,0,8,2,35.81659769,128.5296531,진천동
월배초등학교,대구광역시 달서구 월배로 131 (진천동),6,7,73,17,35,2,35.81642334,128.5283129,진천동
자연과예술유치원,대구광역시 달서구 월배로5길 11-4 (유천동),2,1,29,5,8,0,35.81210506,128.516097,진천동
진천유치원,대구광역시 달서구 상화로9길 15 (진천동),2,2,13,7,8,3,35.80895431,128.5193669,진천동
진천초등학교,대구광역시 달서구 상화로9길 65 (진천동),3,6,20,13,8,2,35.81127897,128.5195481,진천동
태양유치원,대구광역시 달서구 월배로28안길 17-10 (진천동),2,3,10,5,8,2,35.81403925,128.5293484,진천동
행복한어린이집,대구광역시 달서구 화암로 301 (대곡동),1,1,10,2,12,0,35.80469338,128.516933,진천동
예원유치원,대구광역시 북구 칠성로 105-21 (칠성동2가),2,1,7,2,,0,35.87931739,128.600701,칠성동
옥산초등학교,대구광역시 북구 칠성시장로23길 55 (칠성동2가),5,7,36,17,,0,35.88089463,128.5978735,칠성동
좋은유치원,"대구광역시 북구 호암로 20 (칠성동2가, 성광우방타운)",6,6,47,12,,1,35.88266282,128.592027,칠성동
혜송유치원,"대구광역시 북구 호암로 40 (칠성동2가, 삼성아파트)",0,0,0,0,,1,35.88190419,128.5937835,칠성동
달산초등학교,대구광역시 북구 옥산로17길 37 (침산동),2,4,23,8,,0,35.88770026,128.5851441,침산동
연세유치원,대구광역시 북구 침산남로 165-4 (침산동),3,0,5,2,,1,35.8882443,128.5940851,침산동
칠성초등학교,대구광역시 북구 침산남로32길 17 (침산동),4,4,28,7,,2,35.88703349,128.5932396,침산동
침산ing유치원,대구광역시 북구 침산남로37길 10 (침산동),2,0,0,0,,1,35.8882997,128.5962947,침산동
침산초등학교,대구광역시 북구 성북로 25 (침산동),3,3,35,5,,0,35.8911138,128.5850731,침산동
 메이플유치원,"대구광역시 북구 영송로 85 (태전동, 한신중앙아파트)",0,0,0,0,,1,35.93279502,128.5426122,태전동
 엘리트어린이집,대구광역시 북구 칠곡중앙대로43길 13 (태전동),5,3,23,8,,0,35.9150239,128.546879,태전동
 웃는아이어린이집,대구광역시 북구 학정로 110-22 (태전동),1,2,7,1,,0,35.9171941,128.5520429,태전동
 하나어린이집,대구광역시 북구 칠곡중앙대로43길 33 (태전동),0,0,0,0,,0,35.9150643,128.5445336,태전동
가람유치원,"대구광역시 북구 칠곡중앙대로52길 20 (태전동, 삼성아파트)",2,3,13,5,,0,35.9198599,128.548361,태전동
대구과학대학부설유치원,대구광역시 북구 영송로 15 (태전동),0,0,0,0,,0,35.92684373,128.5440255,태전동
대구관천초등학교,대구광역시 북구 구암로22길 17 (태전동),4,2,17,5,,1,35.9305641,128.5520482,태전동
무지개어린이집,대구광역시 북구 칠곡중앙대로77길 28 (태전동),0,0,0,0,,0,35.9230893,128.5411962,태전동
태암초등학교,대구광역시 북구 칠곡중앙대로52길 56 (태전동),2,3,21,9,,1,35.9230319,128.5505023,태전동
태현초등학교,대구광역시 북구 태전로 95 (태전동),3,2,19,5,,0,35.92816693,128.5406343,태전동
한꽃유치원,대구광역시 북구 매천로 204 (태전동),0,0,0,0,,0,35.91517961,128.5426024,태전동
동영유치원,대구광역시 수성구 파동로51길 80 (파동),1,1,7,4,6,0,35.82237562,128.6088487,파동
별하나어린이집,대구광역시 수성구 파동로51길 64 (파동),1,0,7,3,8,0,35.82268246,128.608831,파동
이바유치원,대구광역시 수성구 파동로30길 61 (파동),2,1,14,3,6,0,35.821523,128.615549,파동
키즈브라운어린이집,대구광역시 수성구 파동로38길 45-3 (파동),2,2,10,5,7,0,35.81906166,128.6145928,파동
파동초등학교,대구광역시 수성구 파동로51길 34 (파동),3,2,29,5,10,0,35.82401679,128.6074144,파동
팔달초등학교,대구광역시 북구 매천로2길 19-6 (팔달동),4,4,18,8,,0,35.8979308,128.5449083,관문동
 궁전어린이집,대구광역시 서구 국채보상로61길 24 (평리동),4,2,6,5,8,1,35.8742607,128.5645604,평리동
글나라어린이집,대구광역시 서구 국채보상로46길 31-27 (평리동),6,1,27,9,11,0,35.868026,128.557647,평리동
대구비산초등학교,대구광역시 서구 통학로 202 (평리동),9,4,24,5,15,0,35.87875905,128.5643247,평리동
서도초등학교,대구광역시 서구 평리로 395 (평리동),19,9,25,14,21,0,35.86727153,128.5653531,평리동
서평초등학교,대구광역시 서구 서대구로45길 60 (평리동),10,1,2,1,8,1,35.8782122,128.547905,평리동
이현초등학교,대구광역시 서구 국채보상로37길 35 (평리동),10,1,0,0,10,0,35.87348606,128.5503997,평리동
창의나라어린이집,대구광역시 서구 문화로51길 9 (평리동),3,1,10,4,8,0,35.87663662,128.5606027,평리동
평리초등학교,대구광역시 서구 국채보상로53길 6-5 (평리동),17,4,18,16,15,1,35.87239568,128.5613416,평리동
대구동곡초등학교,대구광역시 달성군 하빈면 달구벌대로55길 104-4 ,1,2,9,4,,0,35.87936389,128.4173532,하빈면
대구하빈초등학교,대구광역시 달성군 하빈면 하빈로 391-1 ,2,2,33,6,,0,35.901692,128.4421117,하빈면
하빈초교병설유치원,대구광역시 달성군 하빈면 하빈로 391-1 ,0,0,0,0,,0,35.901692,128.4421117,하빈면
대구해안초등학교,대구광역시 동구 옻골로 50 (부동),1,2,14,3,12,0,35.896174,128.6830241,해안동
달성어린이집,대구광역시 달성군 현풍읍 현풍중앙로10길 74 ,1,3,11,3,,0,35.69608,128.4476,현풍읍
대구포산초등학교,대구광역시 달성군 현풍읍 테크노북로 80 ,3,4,60,0,,0,35.69487555,128.4526294,현풍읍
비슬향유치원,대구광역시 달성군 현풍읍 현풍동로22길 17 ,0,0,0,0,,0,35.70048137,128.4508896,현풍읍
안드레아유치원,대구광역시 달성군 현풍읍 현풍동로 10 ,1,3,26,14,,0,35.6922568,128.4482242,현풍읍
자연과학어린이집,대구광역시 달성군 현풍읍 현풍동로25길 17 ,0,0,0,0,,0,35.69864,128.4484034,현풍읍
장원유치원,대구광역시 달성군 현풍읍 현풍동로 49 ,0,0,0,0,,0,35.6948584,128.4504725,현풍읍
포산유치원,대구광역시 달성군 현풍읍 테크노북로 78 ,0,0,0,0,,0,35.69426963,128.4527457,현풍읍
해피키즈유치원,대구광역시 달성군 현풍읍 현풍동로20길 12 ,0,0,0,0,,0,35.69960248,128.4512374,현풍읍
현풍아이세상어린이집,대구광역시 달성군 현풍읍 현풍중앙로10길 64 ,0,0,0,0,,0,35.69535446,128.448957,현풍읍
현풍초등학교,대구광역시 달성군 현풍읍 비슬로134길 167-6 ,20,7,82,22,,0,35.69810979,128.4484673,현풍읍
늘푸른유치원,대구광역시 달성군 화원읍 명곡로 4 ,0,0,0,0,,0,35.799372,128.4956269,화원읍
대구화동초등학교,대구광역시 달성군 화원읍 성암로 38 ,6,9,56,11,,0,35.79954584,128.5096929,화원읍
대구화원초등학교,대구광역시 달성군 화원읍 비슬로 2580 ,3,5,43,2,,1,35.80302218,128.4993245,화원읍
도담소리숲유치원,대구광역시 달성군 화원읍 인흥2길 79 ,2,1,7,2,,0,35.78843377,128.519735,화원읍
동그라미어린이집,대구광역시 달성군 화원읍 비슬로500길 10 ,2,1,10,1,,0,35.798826,128.4911558,화원읍
명곡초등학교,대구광역시 달성군 화원읍 명곡로 40 ,2,0,0,0,,0,35.79667071,128.4961175,화원읍
백설어린이집,대구광역시 달성군 화원읍 비슬로502길 14 ,1,1,12,2,,0,35.799048,128.4921745,화원읍
엘키즈유치원,대구광역시 달성군 화원읍 성천로42길 24 ,3,1,17,6,,0,35.810371,128.5041695,화원읍
옥스퍼드어린이집,대구광역시 달성군 화원읍 인흥길 29 ,0,0,0,0,,0,35.80115908,128.4986254,화원읍
천내어린이집,대구광역시 달성군 화원읍 화원로7길 55 ,1,3,17,2,,0,35.805797,128.496537,화원읍
천내초등학교,대구광역시 달성군 화원읍 성천로 192 ,5,7,59,11,,0,35.80943449,128.501982,화원읍
큰별유치원,대구광역시 달성군 화원읍 성화로4길 13 (화원태왕타운),2,1,11,3,,0,35.80291745,128.492025,화원읍
하늘숲유치원,대구광역시 달성군 화원읍 비슬로539길 11-11 ,1,1,14,4,,0,35.80964,128.5072876,화원읍
화남어린이집,대구광역시 달성군 화원읍 비슬로512길 44 ,2,1,19,6,,1,35.801789,128.498308,화원읍
화남초등학교,대구광역시 달성군 화원읍 명천로 181 ,5,6,43,1,,0,35.80002003,128.498009,화원읍
화원유치원,대구광역시 달성군 화원읍 비슬로525길 46 ,0,0,0,0,,0,35.808466,128.5010063,화원읍
대구황금유치원,대구광역시 수성구 청호로 286 (황금동),2,2,21,1,20.5,0,35.84474548,128.6416364,황금동
삼덕어린이집,대구광역시 수성구 청호로46길 5-2 (황금동),2,0,7,2,6.5,0,35.83869544,128.6407496,황금동
성동초등학교,대구광역시 수성구 청수로45길 27 (황금동),3,4,25,7,13,2,35.8409043,128.6322828,황금동
황금초등학교,대구광역시 수성구 들안로32길 22 (황금동),4,5,28,12,9,0,35.84422116,128.618389,황금동
 소원어린이집,대구광역시 동구 아양로52길 17 (효목동),1,1,4,2,,0,35.88666,128.6406,효목동
 효성어린이집,대구광역시 동구 효목로19길 9-6 (효목동),0,0,0,0,8,0,35.881296,128.641876,효목동
대구효목초등학교,대구광역시 동구 화랑로27길 25 (효목동),5,6,24,14,8,0,35.87600495,128.641577,효목동
세원어린이집,대구광역시 동구 효목로17길 50 (효목동),2,1,15,3,8,0,35.881853,128.640146,효목동
소원유치원,대구광역시 동구 아양로42길 12 (효목동),2,1,12,1,8,0,35.885493,128.6366879,효목동
효동초등학교,대구광역시 동구 효동로 78-7 (효목동),3,1,17,0,6,1,35.884122,128.6447389,효목동
효목어린이집,대구광역시 동구 효목로13길 23 (효목동),3,2,11,3,8,0,35.878173,128.641234,효목동
