시설명,주소,구역지정수,시설물 CCTV 수,시설물 도로표지판 수,시설물 과속방지턱 수,보호구역도로폭,사고건수,위도,경도,평균주행속도,불법주정차위반건수,신호등_150m_개수,위험도_raw,위험도점수(0~100)
보성은하유치원,"대구광역시 달서구 월곡로 320 (상인동, 보성은하아파트)",0,0,0,0,20.0,4,35.82358041,128.5342978,36.08,0.6,20,0.6961210416552043,100.0
아이위드유치원,대구광역시 달서구 장기로 173 (본리동),1,1,16,3,15.0,4,35.84256383,128.5420251,32.6,69.30000000000001,24,0.6726179383245792,95.35784833222762
대구한솔초등학교,대구광역시 달서구 조암남로 172-13 (유천동),2,3,28,6,12.0,4,35.81656683,128.5156958,30.92,21.2,16,0.6482307686149466,90.54108269292989
송일초등학교,대구광역시 달서구 학산로2길 38 (월성동),2,4,25,7,15.0,4,35.82411883,128.5328131,32.97,71.0,26,0.6403337175190265,88.9813180780315
썸머힐어린이집,대구광역시 달서구 조암남로27길 10 (대천동),1,1,4,0,8.0,3,35.81744454,128.5194445,32.97,69.30000000000001,11,0.6201615858980497,84.99707424735307
대구유가초등학교,대구광역시 달성군 유가읍 테크노대로5길 34 ,3,2,55,0,9.0,2,35.69223444,128.4677385,54.32,478.8,15,0.6106444094331932,83.11731496717113
진천유치원,대구광역시 달서구 상화로9길 15 (진천동),2,2,13,7,8.0,3,35.80895431,128.5193669,30.92,19.8,2,0.5938600108360826,79.80219003051619
용지초등학교,대구광역시 수성구 지산로 12 (지산동),5,2,36,8,20.0,2,35.822008,128.632722,47.09,356.6,10,0.5634062834880593,73.78720472369068
칠성초등학교,대구광역시 북구 침산남로32길 17 (침산동),4,4,28,7,9.0,2,35.88703349,128.5932396,37.06,542.0,9,0.562536616942186,73.6154348961262
무지개유치원,대구광역시 수성구 용학로 197 (지산동),1,1,12,0,16.5,2,35.844469,128.692702,41.83,142.0,5,0.5622506842900603,73.55895968435252
대구한샘초등학교,대구광역시 달서구 월배로11길 42 (대천동),3,3,29,8,20.0,3,35.81699982,128.5188133,32.97,69.30000000000001,19,0.5551735365559552,72.16113605677484
대구상원유치원,대구광역시 달서구 학산남로 34 (상인동),0,0,0,0,20.0,2,35.82283958,128.5367112,36.08,69.30000000000001,0,0.5497451565253851,71.08896430746469
성동초등학교,대구광역시 수성구 청수로45길 27 (황금동),3,4,25,7,13.0,2,35.8409043,128.6322828,42.36,245.0,2,0.5463993903763058,70.42813438681813
조은어린이집,대구광역시 달서구 당산로45길 95 (감삼동),2,1,9,4,6.0,2,35.85541593,128.5422125,34.48,69.30000000000001,0,0.5408355394741909,69.3292054759779
월배유치원,대구광역시 달서구 월배로 149-7 (진천동),0,0,0,0,8.0,2,35.81659769,128.5296531,30.92,69.30000000000001,5,0.5395260396210313,69.0705631664165
상화유치원,"대구광역시 달서구 상인서로 76 (상인동, 상인영남화성타운)",2,1,13,3,9.0,2,35.81756,128.5432,36.08,69.30000000000001,8,0.5321909078063438,67.6217845133221
라온어린이집,대구광역시 달서구 조암남로14길 57 (월성동),1,0,3,2,8.0,2,35.82332367,128.525094,32.97,69.30000000000001,13,0.5312934337819492,67.44452236710598
 남도초등학교,대구광역시 남구 현충동길 74 (대명동),6,8,85,11,7.0,3,35.84427387,128.5813642,35.31,92.8,6,0.5232148614185644,65.84890507170651
구지세현유치원,대구광역시 달성군 구지면 국가산단대로70길 23 ,0,0,0,0,9.0,1,35.66159725,128.4202023,50.3,69.30000000000001,0,0.5190053189963583,65.017468724731
은초롱유치원,대구광역시 달서구 서당로7길 93 (신당동),3,3,14,5,10.0,2,35.85425496,128.4938553,35.93,69.30000000000001,10,0.5116784044015271,63.57031307351527
보물섬어린이집,대구광역시 남구 대명로49길 9-5 (대명동),2,3,14,4,8.0,2,35.84228388,128.5824945,35.31,69.30000000000001,12,0.5110174943730637,63.43977522292933
행복숲유치원,"대구광역시 북구 구암로 17 (관음동, 칠곡2차(수정)한양아파트)",1,1,13,3,9.0,1,35.93664054,128.5429351,55.86,69.30000000000001,7,0.5092097177283185,63.082717125183194
태양유치원,대구광역시 달서구 월배로28안길 17-10 (진천동),2,3,10,5,8.0,2,35.81403925,128.5293484,30.92,69.30000000000001,3,0.5083396746031755,62.91087291858629
 자연동화유치원,대구광역시 동구 안심로51길 13-2 (서호동),0,0,0,0,8.0,1,35.86684127,128.712357,45.96,69.30000000000001,0,0.5056550180795462,62.38062027138277
대구비슬초등학교,대구광역시 달성군 유가읍 테크노북로 144 ,4,9,65,0,9.0,2,35.69605694,128.458744,54.32,69.30000000000001,15,0.5053120307777815,62.31287606532992
월성아이세상어린이집,대구광역시 달서구 조암남로10길 42 (월성동),3,1,17,8,8.0,2,35.82283274,128.5260536,32.97,69.30000000000001,14,0.5046650430821542,62.185088046529394
천사유치원,"대구광역시 수성구 신매로 91 (신매동, 시지삼주한라협화타운)",1,1,30,6,20.0,1,35.83749115,128.7069579,45.96,456.4,5,0.5026673805112409,61.79052514541973
학남어린이집,대구광역시 북구 주좌길 34 (학정동),0,0,0,0,9.0,1,35.95070348,128.5692323,44.54,88.75,0,0.5024585979104778,61.749288016658454
키즈하버드어린이집,대구광역시 동구 율하동로8길 75 (율하동),0,0,0,0,8.0,1,35.864335,128.701941,45.96,69.30000000000001,7,0.4971184327136925,60.694539780831434
상인초등학교,대구광역시 달서구 월곡로 211 (상인동),3,3,26,10,8.0,2,35.81293412,128.5426752,36.08,8.2,7,0.49361367136794404,60.00230635542202
제일어린이집,대구광역시 수성구 용학로30길 82 (지산동),1,1,3,1,9.0,1,35.82168,128.6296,47.09,69.30000000000001,5,0.49235022651834565,59.752760474897414
월촌초등학교,대구광역시 달서구 상인서로 60 (상인동),2,3,16,4,15.0,2,35.81635648,128.543274,36.08,28.0,19,0.49057417577165374,59.401968631802326
대구관천초등학교,대구광역시 북구 구암로22길 17 (태전동),4,2,17,5,9.0,1,35.9305641,128.5520482,42.48,288.5,3,0.4868406434964541,58.66455013713843
대구반야월초등학교,대구광역시 동구 안심로49길 70 (서호동),2,2,13,5,6.0,1,35.86827367,128.7107622,45.96,88.5,0,0.4810715700537852,57.52508725316723
율하유치원,대구광역시 동구 안심로16길 19 (율하동),1,1,6,0,8.0,1,35.86633074,128.694752,45.96,69.30000000000001,14,0.47840661370297904,56.99872563213333
화남어린이집,대구광역시 달성군 화원읍 비슬로512길 44 ,2,1,19,6,9.0,1,35.801789,128.498308,49.99,69.30000000000001,10,0.4770990578289004,56.740467282324225
대구유천초등학교,대구광역시 달서구 달서대로 39 (유천동),5,3,40,9,12.0,2,35.81257393,128.5118548,30.92,69.30000000000001,4,0.4764795014301312,56.61809728167507
옥빛유치원,대구광역시 달성군 옥포읍 돌미로2서길 20 ,0,0,0,0,9.0,0,35.77889598,128.4364841,65.3,69.30000000000001,4,0.47402562541823595,56.13342662091673
꼬마또래 어린이집,대구광역시 남구 효동2길 16 (봉덕동),0,0,0,0,10.0,1,35.83768718,128.600747,37.09,69.30000000000001,0,0.47397454432640246,56.12333747769548
진천초등학교,대구광역시 달서구 상화로9길 65 (진천동),3,6,20,13,8.0,2,35.81127897,128.5195481,30.92,69.30000000000001,0,0.47337282178044165,56.004489882083355
 메이플유치원,"대구광역시 북구 영송로 85 (태전동, 한신중앙아파트)",0,0,0,0,9.0,1,35.93279502,128.5426122,42.48,69.30000000000001,17,0.4722599358337851,55.78468123466186
대구강동초등학교,대구광역시 동구 동호로7길 17 (신서동),3,2,18,4,8.0,1,35.86809748,128.7302386,45.96,167.75,13,0.47209151882343514,55.75141680594028
화원유치원,대구광역시 달성군 화원읍 비슬로525길 46 ,0,0,0,0,9.0,0,35.808466,128.5010063,49.99,450.8,6,0.47193389487187437,55.72028413893349
 동심어린이집,대구광역시 달서구 상화로51길 14 (상인동),0,0,0,0,9.0,1,35.80953,128.5425,36.08,69.30000000000001,0,0.47170167826451564,55.67441850595854
동도초등학교,대구광역시 수성구 동대구로57길 8 (범어동),5,3,36,6,8.0,1,35.8570927,128.624038,36.68,555.0,14,0.47069225445799934,55.475044902354334
 지산어린이집,대구광역시 수성구 지산로14길 29 (지산동),1,1,12,6,13.0,1,35.827079,128.635668,47.09,39.8,5,0.4698161628673252,55.30200604950335
대구대실유치원,대구광역시 달성군 다사읍 대실역남로1길 29 ,0,0,0,0,9.0,1,35.85260229,128.4676236,40.57,69.30000000000001,14,0.4695647485233831,55.252348627689116
동문초등학교,대구광역시 수성구 효행로2길 111 (만촌동),5,6,55,15,14.0,2,35.874856,128.6524257,39.84,62.0,0,0.4693122588196324,55.20247880910076
동산어린이집,대구광역시 수성구 달구벌대로652길 65-6 (욱수동),1,1,11,4,12.0,1,35.832271,128.710217,41.83,69.30000000000001,0,0.46745558317796204,54.835762558687065
대구해안초등학교,대구광역시 동구 옻골로 50 (부동),1,2,14,3,12.0,0,35.896174,128.6830241,72.8,6.0,0,0.46542503921388717,54.43470517844601
 미리내어린이집,대구광역시 달서구 감삼길 99 (감삼동),0,0,0,0,10.0,1,35.84998499,128.5433046,34.48,69.30000000000001,0,0.4652922305211908,54.40847382994609
침산ing유치원,대구광역시 북구 침산남로37길 10 (침산동),2,0,0,0,9.0,1,35.8882997,128.5962947,37.06,69.30000000000001,8,0.46520560657676124,54.39136453665635
성산초등학교,대구광역시 달서구 선원남로 173 (용산동),0,0,0,0,25.0,1,35.85789855,128.5189229,33.27,246.2,3,0.465081093843844,54.366771742137274
은성어린이집,대구광역시 수성구 교학로7길 16 (만촌동),1,2,5,1,9.0,1,35.85202,128.653,39.84,69.30000000000001,2,0.46433281354094824,54.21897718891662
예아람학교,대구광역시 달성군 옥포읍 비슬로 1934 ,0,0,0,0,9.0,0,35.78006732,128.4343568,65.3,69.30000000000001,12,0.46426952785726033,54.20647748885807
뉴대구어린이집,대구광역시 수성구 교학로 54-1 (만촌동),1,0,7,2,8.0,1,35.85091038,128.6528587,39.84,7.6,4,0.46421265703813536,54.19524480336396
대구논공초등학교,대구광역시 달성군 논공읍 논공로7길 41 ,0,0,0,0,9.0,0,35.73103879,128.4376482,58.89,117.4,0,0.464045497505687,54.16222874197737
대진초등학교,대구광역시 달서구 상화로 70 (대곡동),4,4,28,6,12.0,2,35.80662752,128.5217528,30.92,1.2,13,0.4629511331573017,53.946078337771475
대구강림초등학교,대구광역시 달성군 옥포읍 돌미로 15 ,8,1,23,0,9.0,0,35.78124474,128.436759,65.3,237.6,16,0.46071571784674537,53.504556349543584
플레이키즈어린이집,대구광역시 달서구 월곡로26안길 17-7 (상인동),1,1,4,0,9.0,1,35.80915,128.5503,36.08,69.30000000000001,2,0.46039583144436513,53.44137485493763
연세유치원,대구광역시 북구 침산남로 165-4 (침산동),3,0,5,2,9.0,1,35.8882443,128.5940851,37.06,69.30000000000001,7,0.4598207574011667,53.327790666025535
신영유치원,대구광역시 달성군 논공읍 논공로17길 14 ,0,0,0,0,9.0,0,35.72964561,128.4429589,58.89,69.30000000000001,0,0.45758044374224616,52.885301193814435
리라어린이집,대구광역시 북구 대현로21길 52 (대현동),1,1,3,2,9.0,1,35.88471833,128.6079209,35.87,69.30000000000001,2,0.45701812674567543,52.77423667834484
하빈초교병설유치원,대구광역시 달성군 하빈면 하빈로 391-1 ,0,0,0,0,9.0,0,35.901692,128.4421117,59.56,69.30000000000001,3,0.4561507003559193,52.602909309136145
비안네유치원,대구광역시 수성구 달구벌대로650길 81 (욱수동),2,2,12,3,6.0,1,35.831299,128.708749,41.83,0.4,3,0.45582049409404896,52.53768951549074
영재어린이집,대구광역시 서구 평리로 146 (중리동),5,0,15,2,24.0,1,35.85854025,128.5403882,50.57,69.30000000000001,29,0.45508687045989443,52.39278983441883
옥포예일유치원,대구광역시 달성군 옥포읍 법화길 61 ,1,0,12,2,9.0,0,35.78659013,128.4462115,65.3,69.30000000000001,11,0.4543052394293294,52.23840810273524
율하초등학교,대구광역시 동구 율하동로15길 1 (율하동),6,4,36,8,6.0,1,35.86781358,128.7015369,45.96,172.25,5,0.45368400053632035,52.11570578880256
행복나무유치원,대구광역시 달서구 성서서로73길 68 (신당동),1,1,5,1,6.0,1,35.85821036,128.496413,35.93,69.30000000000001,8,0.4535197720126839,52.08326863766679
이튼어린이집,대구광역시 달성군 논공읍 논공로17길 16-8 ,0,0,0,0,9.0,0,35.72968405,128.4431574,58.89,69.30000000000001,4,0.45270239496175835,51.92182662778511
스탠포드어린이집,대구광역시 달성군 논공읍 논공로5길 198 ,0,0,0,0,9.0,0,35.73015484,128.446495,58.89,69.30000000000001,4,0.45270239496175835,51.92182662778511
중리초등학교,대구광역시 서구 국채보상로 135 (이현동),9,2,28,2,35.0,1,35.86971383,128.5454299,50.57,104.8,8,0.4525069372974728,51.88322133768881
동평초등학교,대구광역시 북구 동천로 84 (동천동),1,3,19,6,9.0,1,35.93900093,128.5608217,29.97,478.0,11,0.4517146699226126,51.72673879732843
자연누리유치원,대구광역시 수성구 노변로 101 (노변동),1,1,21,4,10.5,1,35.840502,128.7005283,41.83,1.4,2,0.450978593409539,51.58135464253385
 새나래어린이집,"대구광역시 북구 경대로7길 60 (대현동, 성지무궁화아파트)",1,2,7,2,9.0,1,35.88612053,128.6079182,35.87,69.30000000000001,0,0.4505903287060128,51.50466759335328
해성유치원,대구광역시 북구 내곡로 123 (사수동),0,0,0,0,9.0,0,35.89756743,128.5182978,59.66,69.30000000000001,8,0.45038579508165866,51.46426968963587
고운어린이집,대구광역시 수성구 노변공원로7길 6-24 (노변동),2,1,19,4,10.0,1,35.83554109,128.6983109,41.83,15.6,6,0.4498610362554117,51.36062337424626
 미술관유치원,대구광역시 북구 학남로1길 2-11 (학정동),0,0,0,0,9.0,1,35.9490276,128.5662986,44.54,69.30000000000001,41,0.4498443505986498,51.3573277520352
솔리유치원,대구광역시 달서구 조암남로19길 11 (월성동),0,0,0,0,8.0,1,35.81935795,128.5229983,32.97,69.30000000000001,11,0.44902840832795615,51.19616912887709
대구율원초등학교,대구광역시 동구 율하동로 55 (율하동),2,3,21,1,30.0,1,35.864894,128.700743,45.96,142.25,7,0.44885551233863735,51.16202004678028
자연과학어린이집,대구광역시 달성군 현풍읍 현풍동로25길 17 ,0,0,0,0,9.0,0,35.69864,128.4484034,56.15,69.30000000000001,0,0.44846567752528077,51.08502288161779
현풍아이세상어린이집,대구광역시 달성군 현풍읍 현풍중앙로10길 64 ,0,0,0,0,9.0,0,35.69535446,128.448957,56.15,69.30000000000001,0,0.44846567752528077,51.08502288161779
비슬향유치원,대구광역시 달성군 현풍읍 현풍동로22길 17 ,0,0,0,0,9.0,0,35.70048137,128.4508896,56.15,69.30000000000001,0,0.44846567752528077,51.08502288161779
해피키즈유치원,대구광역시 달성군 현풍읍 현풍동로20길 12 ,0,0,0,0,9.0,0,35.69960248,128.4512374,56.15,69.30000000000001,0,0.44846567752528077,51.08502288161779
 환타랜드숲유치원,대구광역시 북구 매천로17길 17-1 (매천동),4,1,4,2,9.0,0,35.90434132,128.5386172,59.66,69.30000000000001,0,0.4479417368793944,50.981538166901586
혜송유치원,"대구광역시 북구 호암로 40 (칠성동2가, 삼성아파트)",0,0,0,0,9.0,1,35.88190419,128.5937835,31.38,69.30000000000001,7,0.4475302749352541,50.90026937769762
대구월서초등학교,대구광역시 달서구 월배로39길 46 (상인동),6,4,56,11,8.0,2,35.82174515,128.5318133,36.08,69.30000000000001,29,0.4474539337756933,50.88519106075412
위즈숲유치원,대구광역시 동구 파계로19길 12-7 (지묘동),1,0,4,0,6.0,0,35.94259175,128.6360031,55.62,69.30000000000001,0,0.4473466494434413,50.86400108703519
대구화원초등학교,대구광역시 달성군 화원읍 비슬로 2580 ,3,5,43,2,9.0,1,35.80302218,128.4993245,49.99,69.30000000000001,7,0.44672332650149366,50.74088714783242
효동초등학교,대구광역시 동구 효동로 78-7 (효목동),3,1,17,0,6.0,1,35.884122,128.6447389,34.53,85.5,7,0.44607572312070415,50.61297752364803
삼영초등학교,대구광역시 북구 내곡로 63 (사수동),0,0,0,0,9.0,0,35.901614,128.5096883,59.66,69.30000000000001,12,0.44550774630117085,50.50079512360654
상록수어린이집,대구광역시 달서구 월배로23길 51 (진천동),2,0,8,3,8.0,1,35.81687806,128.5253391,30.92,69.30000000000001,0,0.4453899557368279,50.4775300399697
한별유치원,대구광역시 북구 칠곡중앙대로99길 45-21 (관음동),0,0,0,0,9.0,0,35.94061383,128.5456385,55.86,69.30000000000001,2,0.4450619516011245,50.412745193297646
포산유치원,대구광역시 달성군 현풍읍 테크노북로 78 ,0,0,0,0,9.0,0,35.69426963,128.4527457,56.15,69.30000000000001,3,0.4448071409399149,50.36241695709579
장원유치원,대구광역시 달성군 현풍읍 현풍동로 49 ,0,0,0,0,9.0,0,35.6948584,128.4504725,56.15,69.30000000000001,3,0.4448071409399149,50.36241695709579
더좋은유치원,"대구광역시 달서구 선원로 241 (용산동, 성서2차보성타운)",1,1,7,0,9.0,1,35.85968,128.5184,33.27,69.30000000000001,6,0.4442075406335377,50.24398852987534
반송초등학교,대구광역시 달성군 옥포읍 용연사길 5 ,3,1,18,4,9.0,0,35.75661793,128.4946927,65.3,2.4,1,0.4439998589184847,50.20296883956734
태암초등학교,대구광역시 북구 칠곡중앙대로52길 56 (태전동),2,3,21,9,9.0,1,35.9230319,128.5505023,42.48,51.5,0,0.44311085227556934,50.02737910522392
아이린유치원,대구광역시 남구 효동길 14 (봉덕동),1,2,14,3,10.0,1,35.83962775,128.5996262,37.09,69.30000000000001,4,0.4424376170412418,49.894406875051914
 반디어린이집,대구광역시 북구 학정동로 84 (학정동),12,3,32,7,9.0,1,35.9512033,128.5682272,44.54,69.30000000000001,5,0.442395543517121,49.88609683712122
기쁨어린이집,대구광역시 달서구 야외음악당로39길 41 (두류동),3,1,12,3,8.0,1,35.85384614,128.5543582,32.95,69.30000000000001,1,0.44205653184918625,49.819137867594534
 궁전어린이집,대구광역시 서구 국채보상로61길 24 (평리동),4,2,6,5,8.0,1,35.8742607,128.5645604,35.23,69.30000000000001,3,0.4415439577612284,49.717898187719165
무지개어린이집,대구광역시 달서구 감삼남2길 108 (감삼동),2,2,7,2,6.0,1,35.845311,128.5424424,34.48,69.30000000000001,7,0.4406906986566239,49.549369031387684
이본유치원,대구광역시 동구 팔공로34길 27 (불로동),2,1,6,0,4.0,0,35.91440895,128.6442396,55.11,69.30000000000001,0,0.4402656071950859,49.46540824504492
신매초등학교,대구광역시 수성구 달구벌대로650길 26 (신매동),3,4,37,18,14.5,1,35.83660884,128.709212,45.96,297.2,8,0.4402598160807383,49.464264428811425
대구세현초등학교,대구광역시 달성군 구지면 국가산단대로66길 10 ,7,5,42,2,9.0,1,35.65978473,128.4198073,50.3,69.30000000000001,14,0.4398721794172989,49.387701425264154
원화유치원,대구광역시 달서구 당산로21안길 49 (감삼동),2,1,8,7,8.0,1,35.84509678,128.5438481,34.48,69.30000000000001,4,0.4394377832577015,49.3019028467368
조암초등학교,대구광역시 달서구 조암로5길 19 (월성동),4,8,41,8,10.0,2,35.82408224,128.5284353,32.97,69.30000000000001,17,0.4393816588738708,49.29081759138404
경전유치원,대구광역시 북구 복현로 11 (복현동),1,3,11,0,9.0,1,35.893506,128.6227636,37.46,69.30000000000001,9,0.4393704555047927,49.28860478834611
칼라풀어린이집,대구광역시 북구 복현로2길 34 (복현동),2,2,16,4,9.0,1,35.8920708,128.6257607,37.46,69.30000000000001,6,0.4393412973861087,49.28284570166833
학정초등학교,대구광역시 북구 학남로 32 (학정동),6,2,28,6,9.0,1,35.94822675,128.568978,44.54,75.25,19,0.43665559306478274,48.75238610154644
테크노초등학교,대구광역시 달성군 유가읍 현풍로 245 ,7,0,0,0,9.0,0,35.70006861,128.4634402,54.32,69.30000000000001,5,0.4362805172149824,48.67830401301548
무산유치원,대구광역시 동구 경안로103길 31 (서호동),6,4,20,17,8.0,1,35.868034,128.712183,45.96,69.30000000000001,3,0.4355790360113143,48.5397528568677
서평초등학교,대구광역시 서구 서대구로45길 60 (평리동),10,1,2,1,8.0,1,35.8782122,128.547905,35.23,5.8,14,0.435127866474901,48.45064133034089
별하나어린이집,대구광역시 수성구 파동로51길 64 (파동),1,0,7,3,8.0,0,35.82268246,128.608831,56.38,69.30000000000001,5,0.43464074193217656,48.354428248323146
한솔어린이집,대구광역시 달서구 성지로16길 69-6 (용산동),2,2,8,1,6.0,1,35.8578109,128.5225034,33.27,69.30000000000001,10,0.434019489144124,48.231723189948646
대구영신초등학교,대구광역시 동구 팔공로50길 32 (봉무동),4,0,14,2,8.0,0,35.92000422,128.646424,55.11,69.30000000000001,0,0.433600802914983,48.1490275156992
호수유치원,대구광역시 동구 팔공로68길 4-5 (봉무동),1,0,3,0,8.0,0,35.92953955,128.642874,55.11,69.30000000000001,9,0.43315478817446174,48.06093412469309
혜성어린이집,대구광역시 북구 신천동로148길 55 (대현동),1,2,8,2,9.0,1,35.8841001,128.6050776,35.87,69.30000000000001,15,0.43164344017170686,47.76242432567302
으뜸유치원,대구광역시 동구 위남로2길 38 (봉무동),1,1,9,3,6.0,0,35.93073599,128.6349831,55.11,69.30000000000001,0,0.4311290773291777,47.660831344793095
신솔정유치원,대구광역시 달성군 옥포읍 비슬로455길 24 ,2,3,19,10,9.0,0,35.791737,128.4687743,65.3,69.30000000000001,0,0.431057100990001,47.646615133501804
대영유치원,대구광역시 달성군 논공읍 논공중앙로22길 47 ,6,1,17,6,9.0,0,35.72369633,128.4498426,58.89,69.30000000000001,0,0.4302089484151434,47.47909457953435
옥포초등학교,대구광역시 달성군 옥포읍 비슬로 2220 ,2,4,21,0,9.0,0,35.78778718,128.4641599,65.3,21.6,3,0.43009552953376784,47.45669295699422
 대구과학어린이집,대구광역시 달서구 와룡로15길 62 (본리동),2,2,12,6,9.0,1,35.83986,128.5336,32.6,69.30000000000001,0,0.4297747925678473,47.39334346563899
대구덕성초등학교,대구광역시 동구 아양로34길 50 (신암동),3,2,18,5,6.0,0,35.88210504,128.6284765,34.16,742.25,6,0.4290997197423901,47.260008288642155
동영유치원,대구광역시 수성구 파동로51길 80 (파동),1,1,7,4,6.0,0,35.82237562,128.6088487,56.38,69.30000000000001,5,0.4288979883089882,47.22016385206562
도원유치원,대구광역시 달서구 한실로 137 (도원동),1,1,12,0,15.0,1,35.80474345,128.5421325,31.93,69.30000000000001,7,0.42873767487251974,47.18849997874644
이바유치원,대구광역시 수성구 파동로30길 61 (파동),2,1,14,3,6.0,0,35.821523,128.615549,56.38,37.8,0,0.4278489057311862,47.0129571538834
 대광어린이집,대구광역시 달서구 용산로4길 32 (본리동),2,2,7,9,6.0,1,35.83843377,128.532385,32.6,69.30000000000001,3,0.4276481535850819,46.9733061385797
논공어린이집,대구광역시 달성군 논공읍 논공로23길 6-15 ,2,1,13,2,9.0,0,35.730295,128.4470703,58.89,69.30000000000001,10,0.4272973155604971,46.9040113183156
참좋은 유치원,대구광역시 남구 삼정2길 36 (봉덕동),1,1,6,1,40.0,1,35.83858034,128.5948414,37.09,69.30000000000001,2,0.4270849239724582,46.86206137022721
한림유치원,"대구광역시 북구 대천로 101 (동천동, 칠곡3차화성타운)",0,0,0,0,9.0,1,35.93701371,128.5603526,29.97,69.30000000000001,20,0.42698617100964636,46.84255644678942
 자연과학유치원,대구광역시 달서구 성지로16길 41 (용산동),6,3,12,4,6.0,1,35.85689206,128.5223818,33.27,69.30000000000001,6,0.4250307154947052,46.45632995779167
월배어린이집,대구광역시 달서구 상화로9길 102-10 (진천동),4,2,12,4,6.0,1,35.81250737,128.5210278,30.92,40.6,2,0.4244838284117687,46.34831303983731
키즈브라운어린이집,대구광역시 수성구 파동로38길 45-3 (파동),2,2,10,5,7.0,0,35.81906166,128.6145928,56.38,69.30000000000001,0,0.42402930927376226,46.25853992584254
월성초등학교,대구광역시 달서구 학산로7길 26 (월성동),0,0,0,0,20.0,1,35.8310902,128.5318969,32.97,69.30000000000001,21,0.4237898081158671,46.211235504638395
노변초등학교,대구광역시 수성구 노변공원로 52 (시지동),2,1,39,14,17.5,1,35.83774591,128.6976275,41.83,85.4,4,0.42377882834652014,46.20906686529453
대구장동초등학교,대구광역시 달서구 달구벌대로304길 112 (장기동),4,3,17,6,15.0,1,35.84478484,128.5317635,38.33,69.30000000000001,8,0.42303709952635726,46.062566310405366
대구관문초등학교,대구광역시 북구 매전로 32 (매천동),2,1,14,2,9.0,0,35.90869975,128.5461085,59.66,14.25,9,0.4230248775001434,46.06015231006787
 지묘어린이집,대구광역시 동구 파계로 117 (지묘동),1,0,7,0,20.0,0,35.944223,128.6370343,55.62,69.30000000000001,7,0.4216300559508099,45.78465791724672
한솔유치원,"대구광역시 달서구 이곡동로 32 (이곡동, 성서와룡타운)",2,2,17,3,20.0,1,35.85286261,128.512059,34.32,69.30000000000001,3,0.42161038426917224,45.780772518436294
팔공초등학교,대구광역시 동구 연경지묘로 150 (지묘동),2,0,0,0,20.0,0,35.9471327,128.6252872,55.62,10.0,5,0.4206780894858633,45.5966328445255
대구동곡초등학교,대구광역시 달성군 하빈면 달구벌대로55길 104-4 ,1,2,9,4,9.0,0,35.87936389,128.4173532,59.56,33.2,8,0.42014647170871877,45.4916318020643
대구서촌초등학교,대구광역시 동구 파계로 525-11 (중대동),2,0,10,0,20.0,0,35.98040326,128.6317455,55.62,2.0,0,0.41915832556950244,45.29646079917002
신당초등학교,대구광역시 달서구 서당로 14 (신당동),2,2,16,7,20.0,1,35.85329967,128.496288,35.93,291.6,29,0.41912539518659664,45.289956643962256
대구용호초등학교,대구광역시 동구 동촌로56길 82 (방촌동),5,4,30,8,8.0,1,35.87735702,128.6723772,38.96,27.5,0,0.4187913378575841,45.2239762172419
늘푸른유치원,대구광역시 달성군 화원읍 명곡로 4 ,0,0,0,0,9.0,0,35.799372,128.4956269,49.99,69.30000000000001,8,0.4182179887612003,45.11073272651846
남동초등학교,대구광역시 달성군 논공읍 논공로 258 ,4,2,29,0,9.0,0,35.72463823,128.456469,58.89,3.2,0,0.4172240725232732,44.914422058237164
달성어린이집,대구광역시 달성군 현풍읍 현풍중앙로10길 74 ,1,3,11,3,9.0,0,35.69608,128.4476,56.15,69.30000000000001,1,0.4162999036479158,44.73188735098199
싱어송유치원,대구광역시 동구 신서로 71-52 (각산동),1,0,4,1,4.0,0,35.875051,128.721113,45.96,69.30000000000001,0,0.4157193550699295,44.617221874188964
키즈로스쿨어린이집,대구광역시 동구 반야월로26길 61-2 (신기동),1,0,4,0,6.0,0,35.870227,128.701366,45.96,69.30000000000001,0,0.4152121086931179,44.51703448272142
 도남초등학교,대구광역시 북구 구리로 202 (국우동),7,3,65,9,9.0,1,35.94865981,128.577122,44.54,132.0,14,0.41492523473579984,44.46037335160733
관음어린이집,대구광역시 북구 관음중앙로22길 3 (관음동),4,2,15,4,9.0,0,35.9432277,128.5456811,55.86,39.75,0,0.41454945101900376,44.38615145064782
단비어린이집,대구광역시 동구 팔공로91길 10 (지묘동),2,1,12,3,8.0,0,35.940566,128.644575,55.62,69.30000000000001,12,0.4140549451986865,44.288480475618854
도담소리숲유치원,대구광역시 달성군 화원읍 인흥2길 79 ,2,1,7,2,9.0,0,35.78843377,128.519735,49.99,69.30000000000001,0,0.4138113137365062,44.240360268573326
동신유치원,대구광역시 수성구 교학로4길 39 (만촌동),2,2,13,5,7.5,0,35.854779,128.6507608,39.84,415.0,0,0.41296701495076193,44.07360088530354
대구하빈초등학교,대구광역시 달성군 하빈면 하빈로 391-1 ,2,2,33,6,9.0,0,35.901692,128.4421117,59.56,69.30000000000001,3,0.4120619153091904,43.89483258600638
대구공산초등학교,대구광역시 동구 팔공로197길 35 (백안동),1,2,12,6,8.0,0,35.9564807,128.6906261,55.62,32.5,2,0.4100538305907663,43.498211182716446
국우초등학교,대구광역시 북구 도남중앙로10길 45 (국우동),4,0,0,0,9.0,0,35.95616,128.5858,44.54,69.30000000000001,0,0.4098443505986498,43.456836310594724
 라온제나어린이집,대구광역시 북구 도남길 33-9 (국우동),0,0,0,0,9.0,0,35.9522319,128.5800568,44.54,69.30000000000001,0,0.4098443505986498,43.456836310594724
율빛유치원,대구광역시 동구 율하서로3길 45 (율하동),0,0,0,0,9.0,0,35.86078,128.6881,45.96,69.30000000000001,4,0.40969001277731926,43.4263526946819
큰별유치원,대구광역시 달성군 화원읍 성화로4길 13 (화원태왕타운),2,1,11,3,9.0,0,35.80291745,128.492025,49.99,69.30000000000001,0,0.409527824639933,43.394318544898816
 튼튼한어린이집,대구광역시 북구 동변로20길 30-1 (동변동),0,0,0,0,9.0,0,35.92309743,128.601318,44.37,69.30000000000001,0,0.40927883590635633,43.34514021093288
동서변유치원,대구광역시 북구 서변로3길 59 (서변동),0,0,0,0,9.0,0,35.9219561,128.5946241,44.37,69.30000000000001,0,0.40927883590635633,43.34514021093288
북구어린이집,대구광역시 북구 환성정길 17-2 (서변동),0,0,0,0,9.0,0,35.922829,128.5945198,44.37,69.30000000000001,0,0.40927883590635633,43.34514021093288
대구선명학교,대구광역시 동구 팔공산로 225 (덕곡동),2,2,12,2,20.0,0,35.99718756,128.6137631,55.62,69.30000000000001,2,0.40862325555570317,43.215655037195084
대청초등학교,대구광역시 수성구 교학로12길 42 (만촌동),5,5,45,11,10.5,1,35.85090774,128.6501668,39.84,101.8,0,0.4079247917527438,43.077699854759175
평리초등학교,대구광역시 서구 국채보상로53길 6-5 (평리동),17,4,18,16,15.0,1,35.87239568,128.5613416,35.23,208.2,8,0.40782325534910135,43.057645167559876
명곡초등학교,대구광역시 달성군 화원읍 명곡로 40 ,2,0,0,0,9.0,0,35.79667071,128.4961175,49.99,69.30000000000001,17,0.4072423790051028,42.942914952952485
대구금계초등학교,대구광역시 달성군 옥포읍 금계길 55 ,4,5,42,2,9.0,0,35.78883806,128.443791,65.3,12.4,2,0.40675683149876224,42.84701335499607
 글로벌씨앤씨어린이집,대구광역시 달서구 월곡로 113-15 (도원동),4,2,13,5,8.0,1,35.80674904,128.5490396,31.93,69.30000000000001,19,0.40647468524242036,42.79128600290949
옥스포드유치원,대구광역시 북구 구리로 169 (국우동),0,0,0,0,9.0,0,35.9479921,128.5731257,44.54,69.30000000000001,3,0.40618581401328396,42.734230386072724
서변초등학교,대구광역시 북구 호국로43길 35 (서변동),7,6,37,7,9.0,0,35.92075558,128.5950281,44.37,664.0,8,0.40608325990100325,42.713974688913765
하늘숲유치원,대구광역시 달성군 화원읍 비슬로539길 11-11 ,1,1,14,4,9.0,0,35.80964,128.5072876,49.99,69.30000000000001,0,0.4058985411508364,42.67749046629459
팔달초등학교,대구광역시 북구 매천로2길 19-6 (팔달동),4,4,18,8,9.0,0,35.8979308,128.5449083,59.66,103.5,8,0.4048735350072943,42.47503915968264
관음초등학교,대구광역시 북구 관음동로17길 16 (관음동),5,3,18,5,9.0,0,35.93992099,128.5471123,55.86,69.30000000000001,4,0.4037638929429678,42.25587121887578
가창초등학교,대구광역시 달성군 가창면 가창로 640 ,1,3,9,0,9.0,0,35.77105069,128.648247,52.94,32.4,4,0.4033118528448421,42.16658774571505
무지개어린이집,대구광역시 북구 칠곡중앙대로77길 28 (태전동),0,0,0,0,9.0,0,35.9230893,128.5411962,42.48,69.30000000000001,0,0.4029916431508583,42.10334239704541
수피아어린이집,대구광역시 동구 메디밸리로8길 11 (사복동),0,0,0,0,12.0,0,35.87587974,128.75082,45.96,69.30000000000001,8,0.4015510944316141,41.81881632636123
수피아유치원,대구광역시 동구 메디밸리로8길 11 (사복동),0,0,0,0,12.0,0,35.87587974,128.75082,45.96,69.30000000000001,8,0.4015510944316141,41.81881632636123
파동초등학교,대구광역시 수성구 파동로51길 34 (파동),3,2,29,5,10.0,0,35.82401679,128.6074144,56.38,14.0,0,0.400905737467564,41.69135039708245
복명초등학교,대구광역시 수성구 범안로20길 8 (범물동),4,5,28,8,10.0,1,35.817658,128.647227,36.31,49.2,4,0.4008990778294867,41.69003503674162
대구관남초등학교,대구광역시 북구 칠곡중앙대로91길 10 (관음동),2,5,15,3,9.0,0,35.93683759,128.5477879,55.86,117.75,6,0.40063291548268065,41.63746470316725
엘키즈유치원,대구광역시 달성군 화원읍 성천로42길 24 ,3,1,17,6,9.0,0,35.810371,128.5041695,49.99,69.30000000000001,0,0.40060259099507317,41.63147524429702
한꽃유치원,대구광역시 북구 매천로 204 (태전동),0,0,0,0,9.0,0,35.91517961,128.5426024,42.48,69.30000000000001,2,0.4005526187606144,41.62160511403074
소명어린이집,대구광역시 동구 율하동로28길 39 (신기동),1,1,6,3,8.0,0,35.871458,128.7070186,45.96,69.30000000000001,0,0.4004797844346864,41.60721943981481
 하나어린이집,대구광역시 북구 칠곡중앙대로43길 33 (태전동),0,0,0,0,9.0,0,35.9150643,128.5445336,42.48,69.30000000000001,3,0.3993331065654924,41.38073647252341
옥스퍼드어린이집,대구광역시 달성군 화원읍 인흥길 29 ,0,0,0,0,9.0,0,35.80115908,128.4986254,49.99,69.30000000000001,24,0.39870579363924913,41.25683446240115
신서초등학교,대구광역시 달서구 계대동문로3길 46 (신당동),12,6,30,11,10.0,1,35.85799273,128.4947454,35.93,123.4,3,0.39826920542409866,41.17060292597041
장기초등학교,대구광역시 달서구 장기로 280 (장기동),2,3,24,4,20.0,0,35.84439346,128.5290637,38.33,676.8,16,0.3982533392441344,41.16746916049501
한국예술유치원,대구광역시 수성구 용학로34길 8 (지산동),2,1,13,4,8.0,0,35.822092,128.6270903,47.09,69.30000000000001,0,0.3979926879409282,41.11598732574048
용계초등학교,대구광역시 달성군 가창면 가창로221길 1 ,2,3,25,6,9.0,0,35.80456757,128.6216025,52.94,216.0,12,0.3977658849190791,41.07119094241519
대구근로복지공단어린이집,대구광역시 서구 서대구로17길 28 (중리동),7,3,9,4,10.0,0,35.865136,128.552628,50.57,69.30000000000001,0,0.3975120157343052,41.021048659376405
예뜰유치원,대구광역시 동구 반야월북로55길 43 (신서동),2,1,10,3,9.0,0,35.87493,128.7306,45.96,69.30000000000001,0,0.3967760054830407,40.87567759210321
세계어린이집,대구광역시 달성군 다사읍 매곡로4길 36 ,0,0,0,0,9.0,0,35.86500199,128.4542579,40.57,69.30000000000001,0,0.3966379192550904,40.84840386555065
서재성모유치원,대구광역시 달성군 다사읍 서재로20길 28-1 ,0,0,0,0,9.0,0,35.870784,128.4999385,40.57,69.30000000000001,0,0.3966379192550904,40.84840386555065
대자연유치원,대구광역시 달성군 다사읍 서재본1길 9-10 ,4,0,0,0,9.0,0,35.873568,128.4950751,40.57,69.30000000000001,0,0.3966379192550904,40.84840386555065
은초롱어린이집,대구광역시 달성군 다사읍 서재본1길 11 ,0,0,0,0,9.0,0,35.87318281,128.495596,40.57,69.30000000000001,0,0.3966379192550904,40.84840386555065
죽곡어린이집,대구광역시 달성군 다사읍 달구벌대로174길 17-5 ,0,0,0,0,9.0,0,35.85792905,128.4620448,40.57,69.30000000000001,0,0.3966379192550904,40.84840386555065
대구해서초등학교,대구광역시 동구 팔공로 220-4 (봉무동),3,2,37,1,8.0,0,35.91807126,128.6430531,55.11,37.5,6,0.39612947389056824,40.74797965927947
백설어린이집,대구광역시 달성군 화원읍 비슬로502길 14 ,1,1,12,2,9.0,0,35.799048,128.4921745,49.99,69.30000000000001,12,0.3959061393576596,40.703868345133905
대구안일초등학교,대구광역시 동구 율하동로23길 66 (율하동),2,2,40,3,8.0,0,35.871415,128.6952236,45.96,247.25,0,0.39590480453316895,40.703604700897294
대구죽곡초등학교,대구광역시 달성군 다사읍 죽곡1길 18 ,6,7,74,24,9.0,0,35.85679928,128.463332,40.57,1041.8,0,0.3951890698932172,40.56223831596527
천내어린이집,대구광역시 달성군 화원읍 화원로7길 55 ,1,3,17,2,9.0,0,35.805797,128.496537,49.99,69.30000000000001,0,0.3947692576617398,40.47932024242028
사수초등학교,대구광역시 북구 내곡로 124 (사수동),3,4,30,2,9.0,0,35.90014717,128.5152503,59.66,4.75,8,0.3937502182552092,40.27804743967563
구지초등학교,대구광역시 달성군 구지면 창리로11길 45-11 ,6,4,21,3,9.0,0,35.66021157,128.4125564,50.3,168.0,4,0.39365508149111905,40.25925675991412
드림유치원,대구광역시 남구 대봉로30길 36-8 (이천동),0,0,0,0,8.0,0,35.85170781,128.6051265,41.53,69.30000000000001,6,0.3936012973390492,40.2486337290863
에벤에셀유치원,대구광역시 동구 금강로16길 25-12 (신서동),3,1,7,7,8.0,0,35.86436912,128.732369,45.96,69.30000000000001,0,0.3931589121605431,40.16125722117111
새동변어린이집,대구광역시 북구 동변로18길 25 (동변동),1,1,10,2,9.0,0,35.9204179,128.6060865,44.37,69.30000000000001,0,0.3931534464982567,40.16017768571822
신월초등학교,대구광역시 달서구 조암남로 100 (월성동),8,3,27,9,20.0,1,35.82059631,128.5224969,32.97,69.30000000000001,4,0.393107964031071,40.15119433964982
미소담어린이집,대구광역시 북구 매전로4길 10-20 (매천동),6,2,27,9,9.0,0,35.90807568,128.5425981,59.66,69.30000000000001,18,0.3930271217285701,40.13522699167444
욱수초등학교,대구광역시 수성구 신매로 20 (신매동),6,4,49,23,14.0,1,35.83137816,128.7077006,45.96,52.2,7,0.3929088983867951,40.111876429177656
 미키월드랜드어린이집,대구광역시 동구 동촌로45길 39 (방촌동),2,0,8,0,4.0,0,35.88328972,128.669149,38.96,69.30000000000001,0,0.39148330021225236,39.830303274754954
산격초등학교,대구광역시 북구 산격로10길 14 (산격동),4,3,41,10,9.0,1,35.89455033,128.6063965,35.18,65.25,12,0.3912901791989919,39.79215950194428
대구과학대학부설유치원,대구광역시 북구 영송로 15 (태전동),0,0,0,0,9.0,0,35.92684373,128.5440255,42.48,69.30000000000001,10,0.3907965211996388,39.69465598197209
드림아이유치원,대구광역시 달성군 다사읍 매곡로 92 ,0,0,0,0,9.0,0,35.86816274,128.4557523,40.57,69.30000000000001,5,0.39054035827948064,39.64406065801399
대구율금초등학교,대구광역시 동구 안심로16길 70 (율하동),5,5,61,5,20.0,1,35.86188781,128.6918367,45.96,18.0,13,0.3903728446023606,39.61097464870372
대구성지초등학교,대구광역시 달서구 새동네로 27 (용산동),2,2,33,9,20.0,0,35.85329006,128.5187152,33.27,809.0,17,0.38999908196442595,39.53715193565039
서동초등학교,대구광역시 달성군 다사읍 서재로7길 55 ,3,2,19,0,9.0,0,35.871804,128.4884318,40.57,204.0,0,0.38981285142271177,39.5003691156267
 대봉초등학교,대구광역시 남구 대봉로26길 33 (이천동),3,7,55,8,12.5,1,35.85166437,128.6048051,41.53,97.0,6,0.3893684695262447,39.412598231382475
성서예능어린이집,대구광역시 달서구 달구벌대로283길 26 (장기동),0,0,0,0,9.0,0,35.85195,128.5227,38.33,69.30000000000001,0,0.3891864315448705,39.376643493535866
에트라움어린이집,대구광역시 북구 학남로1길 29 (학정동),0,0,0,0,9.0,0,35.951241,128.566044,44.54,69.30000000000001,17,0.3891126432815767,39.362069404970086
동호어린이집,대구광역시 동구 안심로51길 120 (동호동),0,0,0,0,8.0,0,35.871609,128.713137,44.54,69.30000000000001,18,0.38898008760819386,39.335888030893194
남도어린이집,대구광역시 남구 장전3길 132 (대명동),5,6,41,9,7.0,1,35.84234083,128.5781777,35.31,69.30000000000001,3,0.3883331759156979,39.20811502364489
더플로우유치원,대구광역시 동구 반야월북로 189-30 (각산동),2,1,21,4,9.0,0,35.87588,128.7188,45.96,69.30000000000001,0,0.3879130771341311,39.1251403529367
동그라미어린이집,대구광역시 달성군 화원읍 비슬로500길 10 ,2,1,10,1,9.0,0,35.798826,128.4911558,49.99,69.30000000000001,21,0.38790560748318204,39.123665005101856
매곡초등학교,대구광역시 달성군 다사읍 대실역북로3길 6 ,0,0,0,0,9.0,0,35.86224983,128.4681199,40.57,66.2,7,0.38768466722257006,39.08002658915099
예일유치원,"대구광역시 북구 대천로7길 40 (읍내동, 칠곡산호한양아파트)",0,0,0,0,9.0,0,35.94103818,128.5557731,37.86,69.30000000000001,0,0.3876229497485297,39.067836629764905
정원어린이집,대구광역시 북구 칠곡중앙대로126길 21-24 (읍내동),0,0,0,0,9.0,0,35.94901771,128.555012,37.86,69.30000000000001,0,0.3876229497485297,39.067836629764905
온누리유치원,대구광역시 동구 안심로7길 21 (용계동),1,1,6,4,12.0,0,35.87241375,128.693319,45.96,69.30000000000001,6,0.3871482185103315,38.974071377655676
아인유치원,대구광역시 동구 화랑로 558 (용계동),1,0,2,0,30.0,0,35.87433428,128.684644,45.96,69.30000000000001,3,0.38677502680096615,38.90036143000924
월배초등학교,대구광역시 달서구 월배로 131 (진천동),6,7,73,17,35.0,2,35.81642334,128.5283129,30.92,69.30000000000001,8,0.38667933426958123,38.88146097937883
 무열대유치원,대구광역시 수성구 무열로 56 (만촌동),1,0,4,0,14.0,0,35.86333136,128.6518315,39.84,69.30000000000001,0,0.38615792759663975,38.77847675545173
수성어린이집,대구광역시 수성구 명덕로76길 80-1 (수성동1가),1,1,10,1,8.0,0,35.851047,128.611237,35.25,230.6,1,0.38602946505538394,38.75310382525829
대구지묘초등학교,대구광역시 동구 파계로6길 54-3 (지묘동),5,3,28,11,6.0,0,35.942816,128.6389777,55.62,13.25,1,0.38580926718500913,38.70961204050031
아이엠어린이집,대구광역시 달성군 다사읍 다사로 103-8 ,0,0,0,0,9.0,0,35.86947794,128.4568706,40.57,69.30000000000001,9,0.38566230949899283,38.680586091984665
대구감삼초등학교,대구광역시 달서구 당산로 123 (감삼동),8,4,41,13,6.0,1,35.84917998,128.5451459,34.48,22.0,4,0.3849153843727304,38.53305920279883
대구용천초등학교,대구광역시 달서구 조암남로32길 55 (유천동),2,3,26,5,15.0,1,35.81972464,128.5125985,30.92,62.2,15,0.3846752418146432,38.485628097176495
대구다사초등학교,대구광역시 달성군 다사읍 다사로 86 ,7,2,18,4,9.0,0,35.8694288,128.4584848,40.57,244.4,4,0.3843524491099157,38.421872572150015
서대구공단어린이집,대구광역시 서구 평리로35길 10 (중리동),7,1,12,4,12.0,0,35.860846,128.5435966,50.57,69.30000000000001,18,0.38392426635620197,38.33730121762283
와룡초등학교,대구광역시 달서구 선원남로 22 (이곡동),1,2,12,4,25.0,0,35.85706992,128.5018556,34.32,539.8,9,0.3837021371722895,38.29342797471296
대구봉무초등학교,대구광역시 동구 팔공로53길 30 (봉무동),2,4,35,0,20.0,0,35.92580074,128.637412,55.11,165.75,12,0.3834819035663933,38.24992913175044
아름그루 유치원,대구광역시 남구 효동길 91 (봉덕동),0,0,0,0,7.0,0,35.83634242,128.6010992,37.09,69.30000000000001,4,0.38235736511113205,38.027818970716396
용산초등학교,대구광역시 달서구 와룡로49길 80 (용산동),6,3,40,21,6.0,1,35.85522492,128.5320158,33.27,69.30000000000001,3,0.3820381617373919,37.964772382658566
숲속예은유치원,대구광역시 달성군 다사읍 죽곡2길 35 ,0,0,0,0,9.0,0,35.85542956,128.4625278,40.57,69.30000000000001,12,0.38200377291362697,37.957980167462665
대구아이누리유치원,대구광역시 달성군 논공읍 논공로15길 20-14 ,0,0,0,0,9.0,0,35.86383095,128.4662651,40.57,69.30000000000001,12,0.38200377291362697,37.957980167462665
효성유치원,대구광역시 북구 동암로37길 17 (국우동),3,1,13,8,9.0,0,35.9448653,128.5710848,44.54,69.30000000000001,0,0.3817563443681202,37.90910998980907
대구불로초등학교,대구광역시 동구 방천로3길 19 (불로동),4,4,19,14,6.0,0,35.89747918,128.6335014,55.11,24.0,0,0.3814149782436587,37.84168598619142
운암초등학교,대구광역시 북구 대천로 148 (구암동),0,0,0,0,9.0,0,35.93569893,128.5656283,31.82,380.25,23,0.38127611973794867,37.814259725293084
혜민어린이집,대구광역시 달성군 화원읍 명천로 231 (명곡미래빌 2단지),0,0,0,0,9.0,0,35.84813,128.4836,35.93,69.30000000000001,0,0.38120269471249196,37.799757380662875
어울림유치원,대구광역시 달성군 다사읍 매곡로4길 26-1 ,2,1,4,4,9.0,0,35.86444559,128.4552346,40.57,69.30000000000001,0,0.3811044301585172,37.780348923971005
매호초등학교,대구광역시 수성구 달구벌대로647길 30 (매호동),4,3,74,22,12.5,1,35.841593,128.7121173,41.83,116.6,7,0.3810180931619312,37.76329630640583
세종유치원,대구광역시 달성군 다사읍 다사로4길 1 ,0,0,0,0,9.0,0,35.86461,128.4603,40.57,69.30000000000001,13,0.380784260718505,37.71711152595533
도원초등학교,대구광역시 달서구 도원남로 100-30 (도원동),2,3,33,16,15.0,1,35.80474345,128.5421325,31.93,104.4,7,0.3805504323843276,37.67092755713197
박애어린이집,대구광역시 남구 대명서2길 45 (대명동),0,0,0,0,8.0,0,35.83199279,128.5626801,35.31,69.30000000000001,0,0.3802271858858667,37.60708240226781
성당초등학교,대구광역시 달서구 대명천로 118 (본리동),4,3,35,8,15.0,1,35.840575,128.5472918,32.6,19.6,10,0.37974776165401525,37.51239022625377
만촌아이숲유치원,대구광역시 수성구 달구벌대로522길 166 (만촌동),2,2,8,0,6.0,0,35.851383,128.6441543,39.84,69.30000000000001,0,0.3797367573406462,37.510216739164
안드레아유치원,대구광역시 달성군 현풍읍 현풍동로 10 ,1,3,26,14,9.0,0,35.6922568,128.4482242,56.15,69.30000000000001,8,0.3796169008365793,37.486543607049455
해와달어린이집,대구광역시 북구 도남길 57-1 (국우동),1,2,12,6,9.0,0,35.9540283,128.5805954,44.54,69.30000000000001,0,0.3794938833089302,37.46224613394099
하늘유치원,대구광역시 수성구 노변공원로3길 10 (노변동),4,2,13,2,6.5,0,35.840338,128.699972,41.83,69.30000000000001,0,0.3792087661659073,37.40593199523448
대구황금유치원,대구광역시 수성구 청호로 286 (황금동),2,2,21,1,20.5,0,35.84474548,128.6416364,42.36,249.6,6,0.37910426968257355,37.3852926559285
 사랑어린이집,대구광역시 북구 칠곡중앙대로126길 3 (읍내동),0,0,0,0,9.0,0,35.9511061,128.553947,37.86,69.30000000000001,7,0.379086364382676,37.38175613921358
북부초등학교,대구광역시 북구 동천로 20 (동천동),0,0,0,0,9.0,0,35.9334558,128.559215,29.97,273.0,8,0.37899934960917436,37.36456965238036
전원어린이집,대구광역시 수성구 유니버시아드로68길 16 (욱수동),1,1,14,3,5.0,0,35.82787864,128.706676,41.83,69.30000000000001,5,0.37867076769876296,37.299670688104925
대구새론초등학교,대구광역시 동구 과학로13길 5 (각산동),2,2,24,0,8.0,0,35.88380453,128.717223,45.96,94.0,10,0.37857885402200575,37.281516607690634
아름다운유치원,대구광역시 동구 동호로2길 37-17 (동호동),3,1,14,3,9.0,0,35.86536,128.7245,44.54,69.30000000000001,9,0.3784598623378793,37.25801428813955
대구교육대학 부설초등학교,대구광역시 달서구 도원남로 19 (도원동),3,2,27,1,25.0,1,35.80596789,128.5323817,31.93,69.30000000000001,25,0.3781871393641172,37.20414815013725
파란하늘유치원,대구광역시 동구 금호강변로3길 14 (율하동),3,2,20,0,9.0,0,35.86937,128.6891,45.96,69.30000000000001,9,0.37800833965217684,37.16883301028933
산돌유치원,대구광역시 동구 방촌로17길 26 (방촌동),2,1,6,2,9.0,0,35.88621,128.6637,38.96,69.30000000000001,0,0.3777735954851767,37.122468153231516
삼덕어린이집,대구광역시 수성구 청호로46길 5-2 (황금동),2,0,7,2,6.5,0,35.83869544,128.6407496,42.36,13.0,10,0.37763474877562264,37.09504422221892
꿈이있는 숲속유치원(꿈숲유치원),대구광역시 달성군 다사읍 다사로 64 ,0,0,0,0,9.0,0,35.86624596,128.4591398,40.57,69.30000000000001,16,0.37712572413313916,36.99450560143334
 웃는아이어린이집,대구광역시 북구 학정로 110-22 (태전동),1,2,7,1,9.0,0,35.9171941,128.5520429,42.48,69.30000000000001,7,0.3757089518660015,36.714675672158556
대구신천초등학교,대구광역시 동구 송라로6길 5 (신천동),7,5,55,4,6.0,1,35.871649,128.6210093,34.22,25.75,11,0.3756090479367607,36.694943418710224
매천초등학교,대구광역시 북구 매천로 179 (매천동),4,6,39,3,9.0,0,35.91332533,128.5410377,59.66,44.5,11,0.3753799064713707,36.649685164055406
 효성어린이집,대구광역시 동구 효목로19길 9-6 (효목동),0,0,0,0,8.0,0,35.881296,128.641876,34.53,69.30000000000001,2,0.37519344702509977,36.612857132569424
 대명초등학교,대구광역시 남구 대명로 100 (대명동),5,9,68,11,8.0,1,35.83886877,128.5688886,35.31,244.0,0,0.37463905403982106,36.503357706684696
리오바어린이집,대구광역시 수성구 달구벌대로528길 15 (만촌동),1,0,0,4,15.0,0,35.8552529,128.6496113,39.84,69.30000000000001,6,0.3737040536674088,36.31868364568503
사과나무유치원,대구광역시 동구 아양로8길 31-4 (신암동),0,0,0,0,6.0,0,35.87987577,128.620657,34.16,69.30000000000001,4,0.3736975095833424,36.317391108681065
청수유치원,대구광역시 수성구 달구벌대로504길 20 (범어동),1,0,2,0,15.0,0,35.856896,128.638055,36.68,52.4,0,0.3735959567508781,36.29733317658761
해맑은유치원,대구광역시 달성군 다사읍 왕선로 41 ,0,0,0,0,9.0,0,35.8631537,128.4640509,40.57,69.30000000000001,19,0.37346718754777336,36.27189967691135
사랑유치원,대구광역시 달서구 야외음악당로41길 68 (두류동),0,0,0,0,6.0,0,35.8568666,128.5560843,32.95,69.30000000000001,1,0.3733309121823841,36.24498361796293
정원유치원,대구광역시 동구 이노밸리로29길 76 (각산동),2,2,28,1,7.0,0,35.88593571,128.7137965,45.96,69.30000000000001,9,0.37328194116917535,36.235311241194566
대구성보학교,대구광역시 북구 동북로71길 9-45 (복현동),1,1,6,2,9.0,0,35.89408427,128.6302775,37.46,69.30000000000001,0,0.3727837599649402,36.136914332685905
보나유치원,대구광역시 중구 남산로7길 86 (남산동),2,0,0,0,9.0,0,35.860456,128.579243,33.32,69.30000000000001,0,0.3725203809072804,36.08489373291351
청동어린이집,대구광역시 남구 이천로28길 42-33 (이천동),1,3,5,3,6.0,0,35.85359762,128.6000087,41.53,69.30000000000001,3,0.37241271893051014,36.063629169762464
온뜨레피움어린이집,대구광역시 동구 아양로 213-6 (신암동),1,0,4,0,6.0,0,35.88711021,128.6367229,34.16,69.30000000000001,3,0.37230019934855785,36.04140516990725
 나래영재어린이집,대구광역시 북구 대불서길 18-6 (산격동),0,0,0,0,9.0,0,35.90119246,128.6145454,35.18,69.30000000000001,6,0.371390703781642,35.86176862134609
시지어린이집,대구광역시 수성구 고산로 160-15 (매호동),1,1,8,3,11.0,0,35.84478308,128.707746,41.83,43.4,6,0.3713735672223671,35.8583839403489
대구동촌초등학교,대구광역시 동구 동촌로 168 (방촌동),2,1,20,1,8.0,0,35.882087,128.658952,38.96,69.30000000000001,0,0.37136834016890957,35.857351533071274
해피아이어린이집,대구광역시 달성군 다사읍 대실역북로 96 ,0,0,0,0,9.0,0,35.86383242,128.4651405,40.57,69.30000000000001,21,0.37102816315752946,35.79016239389669
대구가톨릭대학교부설유치원,대구광역시 동구 안심로 300 (동호동),3,1,7,2,20.0,0,35.865592,128.7176258,44.54,69.30000000000001,11,0.3703104221275081,35.64839972227533
 문화어린이집,대구광역시 달서구 송현로7길 51-16 (상인동),3,0,10,3,9.0,0,35.81851,128.5473,36.08,69.30000000000001,0,0.3701596221897493,35.618614881834496
꿈꽃어린이집,대구광역시 동구 송라로 110 (신암동),1,0,6,0,8.0,0,35.876872,128.616848,34.16,69.30000000000001,2,0.37003738728524826,35.594471986413105
용산유치원,대구광역시 달서구 선원로55길 11-8 (용산동),4,2,10,2,6.0,0,35.85948655,128.5226867,33.27,239.6,6,0.3688122449892284,35.35249133080681
성북초등학교,대구광역시 북구 호국로57길 42 (서변동),4,3,32,5,9.0,0,35.92641014,128.5942114,44.37,125.25,0,0.36878108442409324,35.3463367363528
대구월암초등학교,대구광역시 달서구 조암로6길 55 (월성동),6,11,98,17,10.0,2,35.828572,128.5217032,32.97,69.30000000000001,17,0.36834193924770264,35.259600168662196
대구본리초등학교,대구광역시 달서구 장기로 198 (감삼동),7,4,33,16,8.0,1,35.84457103,128.5386403,34.48,21.6,16,0.3682872064067416,35.24878976012274
큰별어린이집,대구광역시 달서구 선원로23북길 16-10 (이곡동),1,0,4,2,6.0,0,35.86111393,128.5046831,34.32,69.30000000000001,4,0.36827960294226114,35.247287982471406
대구포산초등학교,대구광역시 달성군 현풍읍 테크노북로 80 ,3,4,60,0,9.0,0,35.69487555,128.4526294,56.15,4.2,6,0.3681462679059509,35.220952674641076
꽃동산유치원,대구광역시 동구 동촌로48길 24-7 (방촌동),3,1,12,6,6.0,0,35.880095,128.665058,38.96,69.30000000000001,2,0.3680035403486237,35.19276222851305
대곡유치원,대구광역시 달서구 도원로 42 (도원동),0,0,0,0,30.0,0,35.80600034,128.5352145,31.93,514.0,31,0.3670370070295697,35.00186002313672
인지초등학교,대구광역시 서구 서대구로66길 20 (비산동),10,2,13,10,8.0,0,35.88618347,128.5672852,35.36,248.0,0,0.3667409913769794,34.943393294891166
다솜유치원,대구광역시 북구 복현로20길 20 (복현동),4,1,13,3,9.0,0,35.9008908,128.6222078,37.46,69.30000000000001,0,0.366537654045937,34.90323167380052
상원초등학교,대구광역시 달서구 월곡로20길 15 (상인동),7,7,36,11,8.0,1,35.80636651,128.5506746,36.08,69.30000000000001,17,0.3664221922666894,34.88042655383153
키즈오르다어린이집,대구광역시 동구 국채보상로165길 31 (신천동),1,0,9,2,9.0,0,35.8697,128.6158,34.22,69.30000000000001,0,0.36629309841879926,34.85492893282157
더플로우어린이집,대구광역시 남구 대봉로30길 40 (이천동),1,3,10,2,8.0,0,35.85214855,128.605307,41.53,69.30000000000001,5,0.3661954201260715,34.83563626992881
예일어린이집,대구광역시 동구 동부로 67-1 (신천동),1,0,6,0,6.0,0,35.875539,128.619791,34.22,69.30000000000001,8,0.36509382057880424,34.61805682505183
 예나유치원,"대구광역시 수성구 욱수천로 133 (사월동, 시지2차사월보성타운)",1,1,12,4,15.0,0,35.840293,128.7162017,41.83,2.2,0,0.36452169080096697,34.50505416472191
아이별어린이집,대구광역시 북구 고성로34길 63 (고성동2가),0,0,0,0,9.0,0,35.8799004,128.5868329,32.37,69.30000000000001,4,0.3644821029639761,34.49723508053862
이곡초등학교,대구광역시 달서구 선원남로 120 (이곡동),0,0,0,0,25.0,0,35.85684832,128.5137344,34.32,157.4,5,0.36419947044679796,34.441411685962656
이노유치원,대구광역시 달서구 조암남로20길 54 (월성동),0,0,0,0,8.0,0,35.82184592,128.5211982,32.97,69.30000000000001,7,0.363906457108444,34.383537951665325
가람유치원,"대구광역시 북구 칠곡중앙대로52길 20 (태전동, 삼성아파트)",2,3,13,5,9.0,0,35.9198599,128.548361,42.48,69.30000000000001,3,0.3637451003349628,34.35166800646766
학남초등학교,대구광역시 북구 학정동로 23 (국우동),2,3,23,4,9.0,0,35.9462397,128.5662836,44.54,69.30000000000001,5,0.3632833939844108,34.26047532969279
백합어린이집,대구광역시 중구 남산로4길 111 (남산동),1,0,12,0,10.5,0,35.86232188,128.5860582,33.32,69.30000000000001,0,0.363039478834952,34.21229909092437
향뜰어린이집,대구광역시 수성구 천을로 125 (매호동),1,0,8,6,15.0,0,35.844194,128.7042808,41.83,2.4,6,0.36276498844723853,34.15808386695217
김샘학원 ,대구광역시 수성구 달구벌대로525길 6 (만촌동),1,1,5,2,10.0,0,35.85733531,128.650123,39.84,47.6,12,0.3627174017346562,34.148684906565094
이현초등학교,대구광역시 서구 국채보상로37길 35 (평리동),10,1,0,0,10.0,0,35.87348606,128.5503997,35.23,2.8,0,0.36259897623829834,34.1252944160545
금강 유치원,대구광역시 수성구 동대구로50길 108 (범어동),1,1,3,0,15.0,0,35.84938355,128.628768,36.68,20.2,0,0.36236379415415415,34.07884306498047
코끼리어린이집,대구광역시 달서구 성서로72길 97-11 (이곡동),1,1,5,1,9.0,0,35.84998,128.5128,34.32,69.30000000000001,2,0.3622202188264777,34.05048517379272
동촌성모유치원,대구광역시 동구 해동로 219 (검사동),1,0,12,2,15.0,0,35.88620992,128.6533618,37.55,17.0,0,0.36185660742838655,33.97866745532699
금빛유치원,대구광역시 동구 반야월로 208-1 (동호동),4,2,20,9,8.0,0,35.87172556,128.711336,44.54,69.30000000000001,7,0.36181060960500255,33.969582320077734
좋은유치원,"대구광역시 북구 호암로 20 (칠성동2가, 성광우방타운)",6,6,47,12,9.0,1,35.88266282,128.592027,31.38,69.30000000000001,5,0.3617216357740961,33.95200889533802
 큰뫼생태어린이집,대구광역시 북구 학정로42길 26-24 (구암동),0,0,0,0,9.0,0,35.9250503,128.5583817,31.82,69.30000000000001,5,0.36143298441143407,33.89499670483123
대구예술어린이집,대구광역시 달서구 죽전1안길 14 (죽전동),2,1,6,0,6.0,0,35.85282869,128.5403127,32.68,69.30000000000001,2,0.36103799594875974,33.81698163061058
대구대실초등학교,대구광역시 달성군 다사읍 대실역남로1길 31 ,6,5,76,16,9.0,1,35.85308854,128.4678979,40.57,61.8,14,0.360920391172363,33.7937532423757
움사랑생태어린이집,대구광역시 북구 칠곡중앙대로86길 17-1 (읍내동),3,2,17,2,9.0,0,35.9343405,128.5503227,37.86,69.30000000000001,0,0.36066812108809354,33.74392680133314
봄어린이집,대구광역시 동구 동촌로11길 5 (입석동),4,2,10,1,6.0,0,35.889957,128.649666,37.55,69.30000000000001,7,0.36060727853227814,33.73190964904577
지산초등학교,대구광역시 수성구 지범로17길 3-14 (지산동),6,4,21,6,8.5,0,35.82695807,128.6301691,47.09,69.30000000000001,8,0.3603761339259366,33.68625574944236
예쁜손어린이집,대구광역시 동구 율하동로26길 22 (신기동),2,2,12,5,9.0,0,35.87229,128.7031,45.96,69.30000000000001,21,0.3602745048371932,33.66618275579689
대구죽전초등학교,대구광역시 달서구 죽전길 127 (죽전동),6,7,28,15,10.0,1,35.85778773,128.5399257,32.68,69.30000000000001,10,0.36004154893634166,33.620171103274124
화랑어린이집,대구광역시 남구 두류공원로13길 27-5 (대명동),1,1,5,2,6.0,0,35.84257212,128.569401,35.31,69.30000000000001,8,0.3597906399976528,33.57061350520682
지봉초등학교,대구광역시 수성구 지범로31길 45 (지산동),3,3,31,12,10.0,0,35.82546519,128.6408054,47.09,74.6,0,0.35892210622093496,33.39906741346779
새솔유치원,"대구광역시 북구 동암로7길 39 (읍내동, 칠곡한서타운)",1,2,7,7,9.0,0,35.94955113,128.5555721,37.86,69.30000000000001,0,0.35887684382952656,33.39012753506926
성서어린이집,대구광역시 달서구 성서서로 89 (월암동),2,1,10,0,9.0,0,35.83312,128.4999,32.97,69.30000000000001,0,0.3585640298777922,33.32834293635824
은혜어린이집,대구광역시 달서구 선원로53길 34-10 (용산동),1,1,4,2,6.0,0,35.86015477,128.5223989,33.27,69.30000000000001,4,0.3585367180780955,33.32294852036439
반디유치원,대구광역시 북구 관음동로32길 6-13 (읍내동),1,3,7,2,9.0,0,35.9461262,128.5477343,37.86,69.30000000000001,2,0.35852115277261604,33.31987418129629
진성유치원,"대구광역시 북구 구암로 170 (구암동, 칠곡2차한라타운)",0,0,0,0,9.0,0,35.93052009,128.5593829,31.82,120.0,13,0.3584914029794907,33.31399823164701
대구동호초등학교,대구광역시 동구 동호로 25 (동호동),1,1,18,2,20.0,0,35.8653521,128.7204858,44.54,25.5,10,0.35844657586619355,33.305144326023296
소원유치원,대구광역시 동구 아양로42길 12 (효목동),2,1,12,1,8.0,0,35.885493,128.6366879,34.53,69.30000000000001,3,0.35820680087359147,33.257785819100185
하늘정원유치원,"대구광역시 달서구 한들로 70 (장기동, 장기파랑새마을)",0,0,0,0,20.0,0,35.84660805,128.5264656,38.33,69.30000000000001,16,0.35771771468378877,33.161185287683615
금봉어린이집,대구광역시 달서구 야외음악당로39안길 61 (두류동),1,0,6,2,6.0,0,35.85183709,128.5522074,32.95,69.30000000000001,8,0.3575357598383374,33.125246970203186
사월초등학교,대구광역시 수성구 달구벌대로656길 46 (신매동),1,2,20,6,18.5,0,35.83405266,128.7150423,45.96,67.6,9,0.3574537580719992,33.109050613874736
단비유치원,"대구광역시 수성구 신매로 51 (신매동, 시지천마타운)",1,1,20,6,18.0,0,35.83447236,128.7060699,45.96,6.4,8,0.3572409420763778,33.06701684007452
다애어린이집,대구광역시 달서구 명덕로2길 87 (두류동),3,1,12,2,6.0,0,35.85815248,128.5706752,32.95,69.30000000000001,0,0.35711662375445313,33.042462444115024
세원어린이집,대구광역시 동구 효목로17길 50 (효목동),2,1,15,3,8.0,0,35.881853,128.640146,34.53,69.30000000000001,0,0.3565693873031941,32.934376521624614
들안길초등학교,대구광역시 수성구 들안로16길 58 (두산동),11,11,79,23,13.0,1,35.83886793,128.618451,33.37,538.6,5,0.3565537023606484,32.93127855276607
만촌어린이집,대구광역시 수성구 만촌로14길 11-2 (만촌동),1,2,9,2,8.0,0,35.865971,128.644057,39.84,69.30000000000001,14,0.3565021346246507,32.92109329134346
연제어린이집,대구광역시 달서구 감삼남길 49 (감삼동),2,1,9,4,10.0,0,35.8480268,128.5398261,34.48,69.30000000000001,0,0.35648771338723445,32.91824491977391
아이성어린이집,대구광역시 서구 국채보상로83길 49 (비산동),5,3,9,1,6.0,0,35.8756384,128.5761491,35.36,69.30000000000001,0,0.3562629096460631,32.87384341894571
연경초등학교,대구광역시 북구 연경중앙로11길 19 (연경동),5,0,53,4,9.0,0,35.9457235,128.616056,44.37,45.0,7,0.35613655764531627,32.84888734643298
대구금포초등학교,대구광역시 달성군 논공읍 금포초등길 28 ,21,4,63,2,9.0,0,35.77429302,128.4254986,58.89,127.2,33,0.35557051276337664,32.7370865278021
덕일어린이집,대구광역시 수성구 청호로92길 26 (범어동),2,2,14,4,7.0,0,35.855408,128.643261,36.68,69.30000000000001,2,0.3551069559545051,32.64552836277432
범어유치원,대구광역시 수성구 국채보상로186길 121 (범어동),1,2,8,5,8.0,0,35.86301225,128.634317,36.68,69.30000000000001,3,0.3550590542158371,32.636067180864906
금강어린이집,대구광역시 수성구 수성로75길 24 (수성동1가),3,1,9,6,7.5,0,35.857311,128.612566,35.25,69.30000000000001,3,0.35477468367327114,32.579900504921405
북대구초등학교,대구광역시 북구 동북로37길 68 (산격동),11,8,42,17,9.0,1,35.90328558,128.6095652,35.18,7.25,0,0.3545577543415808,32.537054296710984
하나린어린이집,대구광역시 동구 신암로12길 53 (신천동),1,1,12,1,6.0,0,35.87542121,128.6118783,34.22,69.30000000000001,7,0.35447143246239976,32.52000466501901
마야유치원,대구광역시 달서구 상인로26길 20 (상인동),1,1,8,5,10.0,0,35.81770549,128.5459171,36.08,69.30000000000001,6,0.35348067037889835,32.32431698098884
태현초등학교,대구광역시 북구 태전로 95 (태전동),3,2,19,5,9.0,0,35.92816693,128.5406343,42.48,29.25,9,0.35336972900324226,32.302404696267025
신세계유치원,대구광역시 수성구 신천동로62길 17 (수성동1가),1,2,9,3,8.0,0,35.852548,128.6099755,35.25,69.30000000000001,3,0.35298120541240163,32.225666513661174
한글나라어린이집,대구광역시 달서구 야외음악당로9길 34 (성당동),2,0,6,4,9.0,0,35.84142,128.5509,30.44,69.30000000000001,0,0.35234799639689973,32.100599953470784
 사랑마을유치원,대구광역시 달서구 상화북로 7 (진천동),0,0,0,0,8.0,0,35.80997304,128.527573,30.92,69.30000000000001,11,0.35220896645029953,32.07313983089031
 엘리트어린이집,대구광역시 북구 칠곡중앙대로43길 13 (태전동),5,3,23,8,9.0,0,35.9150239,128.546879,42.48,69.30000000000001,3,0.3522030442601965,32.07197012558472
덕인초등학교,대구광역시 달서구 대명천로43길 66 (본리동),7,10,29,11,8.0,1,35.83856881,128.5344708,32.6,18.6,2,0.35215337990987405,32.062160806218046
창의나라어린이집,대구광역시 서구 문화로51길 9 (평리동),3,1,10,4,8.0,0,35.87663662,128.5606027,35.23,69.30000000000001,7,0.3519657532175007,32.025102229286
선혜유치원,대구광역시 달서구 선원로57길 17 (용산동),5,1,16,3,8.0,0,35.86008631,128.5236318,33.27,69.30000000000001,0,0.35172371985871875,31.97729766729601
청산어린이집,대구광역시 동구 송라로3길 13-3 (신천동),1,0,9,2,8.0,0,35.869435,128.619153,34.22,69.30000000000001,13,0.351526396403953,31.938323860656702
큐리어스어린이집,대구광역시 달서구 당산로30길 42-7 (두류동),1,1,3,1,8.0,0,35.84727082,128.5514561,32.95,69.30000000000001,9,0.35152161808883375,31.9373800847141
동구청어린이집,대구광역시 동구 신암남로 175-1 (신암동),2,1,12,3,10.0,0,35.88768898,128.636004,34.16,69.30000000000001,3,0.35146872840178817,31.926933721717997
 경진초등학교,대구광역시 북구 경진로12길 5 (복현동),5,6,39,10,9.0,0,35.89202775,128.6170922,37.46,403.0,0,0.3514637921225123,31.9259587459137
우정유치원,대구광역시 달서구 선원로14길 10 (신당동),3,1,12,2,8.0,0,35.85859122,128.4990642,35.93,69.30000000000001,11,0.35144121646483667,31.921499776157425
대구화교초등학교,대구광역시 중구 종로 34 (남일동),1,0,6,1,12.0,0,35.868893,128.5918827,29.56,69.30000000000001,0,0.3511597566598102,31.865908006639398
경북유치원,대구광역시 남구 중앙대로40길 10-1 (대명동),3,3,13,2,7.0,0,35.84992534,128.5912659,35.31,69.30000000000001,0,0.3507261361770762,31.78026263382257
세계제일어린이집,대구광역시 북구 복현로20길 73-1 (복현동),3,3,11,1,9.0,0,35.90617,128.6213,37.46,69.30000000000001,7,0.35014281322837,31.665049184726335
보노유치원,대구광역시 수성구 국채보상로 955-2 (만촌동),2,1,15,0,17.0,0,35.86791183,128.6353033,39.84,34.2,12,0.35009890807223204,31.656377376968763
상원어린이집,대구광역시 달서구 조암로 89-23 (월성동),0,0,0,0,8.0,0,35.82250939,128.5216688,32.97,2.8,11,0.3500902362849454,31.654664592437758
은하수어린이집,대구광역시 달서구 달구벌대로301길 58 (용산동),2,1,10,3,10.0,0,35.85234239,128.532161,33.27,69.30000000000001,3,0.34981650387473445,31.600599078334845
아이비어린이집,대구광역시 중구 남산로3안길 20 (남산동),2,1,7,3,8.0,0,35.80990595,128.5243747,30.92,69.30000000000001,0,0.3497941613443046,31.596186154073813
 소원어린이집,대구광역시 동구 아양로52길 17 (효목동),1,1,4,2,9.0,0,35.88666,128.6406,34.53,69.30000000000001,12,0.3497112127889012,31.57980279527271
토마토어린이집,대구광역시 달서구 성서동로65길 24 (이곡동),2,0,7,5,8.0,0,35.85029219,128.5145444,34.32,69.30000000000001,12,0.34938697551537734,31.515761950160925
꿈나무어린이집,대구광역시 중구 남산로1길 46-5 (남산동),2,1,9,3,9.0,0,35.85848306,128.5805841,33.32,69.30000000000001,5,0.34928496946438087,31.495614501839107
 성명초등학교,대구광역시 남구 성당로30길 55 (대명동),8,14,43,7,10.0,1,35.84515216,128.5708254,35.31,168.8,4,0.3492513721877171,31.488978626920666
꿈나무어린이집,대구광역시 수성구 들안로2안길 27-15 (두산동),3,2,12,4,6.0,0,35.832741,128.6192884,33.37,69.30000000000001,0,0.348930444366786,31.425591439356005
청아어린이집,대구광역시 달서구 이곡공원로1길 16 (이곡동),2,1,8,1,6.0,0,35.85620463,128.5082718,34.32,69.30000000000001,14,0.3488843252278017,31.41648234278521
남산교회어린이집,대구광역시 중구 관덕정길 16 (남산동),2,1,12,5,8.0,0,35.8650401,128.590565,33.32,69.30000000000001,2,0.3487345124157226,31.38689247179398
미래유치원,"대구광역시 북구 팔거천동로 104 (동천동, 칠곡2차보성서한타운)",0,0,0,0,9.0,0,35.93270726,128.5563899,29.97,69.30000000000001,11,0.3479617807657439,31.23426847711431
대서초등학교,대구광역시 달서구 송현로 9 (상인동),1,0,0,0,20.0,0,35.82006524,128.5499599,36.08,69.30000000000001,18,0.34779393701319006,31.20111727385053
대산초등학교,대구광역시 북구 신천동로 900 (산격동),5,3,23,7,9.0,0,35.89611402,128.5931912,35.18,195.25,2,0.34773412036436074,31.189302750797243
 무태어린이집,대구광역시 북구 서변로3길 79-8 (서변동),8,5,27,2,9.0,0,35.92329453,128.5957434,44.37,69.30000000000001,8,0.3472758536101783,31.098789436564367
프랜즈유치원,대구광역시 수성구 국채보상로200길 9 (만촌동),2,3,14,7,8.0,0,35.86536904,128.640441,39.84,69.30000000000001,7,0.34718435861978786,31.080718051851502
화남초등학교,대구광역시 달성군 화원읍 명천로 181 ,5,6,43,1,9.0,0,35.80002003,128.498009,49.99,140.2,19,0.34703541671917004,31.051300196573926
시지아이숲유치원 ,대구광역시 수성구 달구벌대로625길 25 (시지동),2,1,37,6,16.5,0,35.84429531,128.6994139,41.83,28.8,0,0.34677805131531325,31.000467367311597
아이비어린이집,대구광역시 달서구 진천로3길 31 (진천동),2,2,10,0,8.0,0,35.80990595,128.5243747,30.92,69.30000000000001,0,0.3465815445218747,30.961654861317932
아일랜드유치원,대구광역시 수성구 국채보상로 990-10 (범어동),3,3,12,1,6.0,0,35.86539414,128.638346,36.68,69.30000000000001,10,0.3464962261302218,30.944803430741658
행복유치원,대구광역시 동구 신암북로7길 75 (신암동),2,3,5,4,8.0,0,35.888735,128.617919,34.16,69.30000000000001,1,0.34649443842118016,30.94445033624208
대구도림초등학교,대구광역시 달성군 다사읍 서재로26길 94 ,3,1,47,3,9.0,0,35.878165,128.4997991,40.57,7.4,0,0.34632036323057025,30.910068347402557
우리아이어린이집,대구광역시 달서구 용산로14길 39 (장기동),1,1,6,2,8.0,0,35.84313621,128.5329738,38.33,69.30000000000001,25,0.3462770162103677,30.901506778349507
대구남양학교,대구광역시 수성구 무학로37안길 6 (지산동),5,5,40,9,9.0,0,35.834025,128.629108,47.09,69.30000000000001,0,0.3459088466839865,30.828788773545163
나현유치원,대구광역시 동구 화랑로88길 90 (방촌동),3,2,20,8,15.0,0,35.87540844,128.6644884,38.96,69.30000000000001,0,0.345842977850069,30.815778869579592
수성유치원,대구광역시 수성구 신천동로96길 45 (수성동4가),3,2,14,4,8.0,0,35.86477932,128.6161398,35.25,69.30000000000001,5,0.3456044863181079,30.768673861901725
YMCA유치원,대구광역시 중구 중앙대로 375 (덕산동),1,1,12,0,8.5,0,35.866686,128.593173,29.56,69.30000000000001,1,0.345236025312582,30.695898286385177
멘사창의유치원,대구광역시 달서구 송현로8길 92 (송현동),2,2,9,3,9.0,0,35.82557,128.5515,32.11,69.30000000000001,0,0.3451073964536665,30.670492506410568
 하늘꿈어린이집,대구광역시 달서구 조암로14안길 18-9 (월성동),2,1,11,4,6.0,0,35.82400034,128.5207155,32.97,69.30000000000001,8,0.3447479296078906,30.599493387947206
대구아양초등학교,대구광역시 동구 아양로 221 (신암동),2,1,15,1,8.0,0,35.88746268,128.6374338,34.16,26.5,7,0.3443826210036391,30.527340450412872
매동초등학교,대구광역시 수성구 천을로31길 16 (매호동),2,4,32,9,10.0,0,35.84521248,128.709212,41.83,104.0,0,0.3434718236257213,30.34744677818473
 동그라미유치원,대구광역시 달서구 중흥로8길 50 (송현동),3,1,12,6,10.0,0,35.82909768,128.5540861,32.11,69.30000000000001,0,0.3433078231094974,30.31505466131426
 본영어린이집,대구광역시 달서구 와룡로2길 16 (본동),2,0,12,3,8.0,0,35.83380938,128.5385895,30.61,69.30000000000001,7,0.3432053152668855,30.294808102983367
강남유치원,대구광역시 동구 신암로18길 19 (신암동),2,2,22,4,8.0,0,35.877706,128.612603,34.16,69.30000000000001,0,0.3428424552891993,30.223138799279585
파프리카유치원,대구광역시 달서구 대명천로21길 10 (성당동),1,1,5,4,6.0,0,35.83899766,128.5492888,30.44,69.30000000000001,6,0.342695998398862,30.19421176406334
아이러브유치원,대구광역시 북구 구암로60길 45-14 (구암동),2,2,11,2,9.0,0,35.9382737,128.5688728,31.82,69.30000000000001,2,0.3420619259812236,30.068974671343195
 아이세상유치원,대구광역시 달서구 선원로37남길 13 (이곡동),5,1,16,6,8.0,0,35.85954502,128.5133311,34.32,69.30000000000001,7,0.34168001935703074,29.993543420946565
 리더스유치원,대구광역시 북구 학정동로13길 12 (학정동),5,16,37,15,9.0,1,35.9502955,128.5665514,44.54,69.30000000000001,8,0.34088264556103876,29.836052299674975
침산초등학교,대구광역시 북구 성북로 25 (침산동),3,3,35,5,9.0,0,35.8911138,128.5850731,37.06,192.75,9,0.34059830672210767,29.77989188558887
삼덕유치원,대구광역시 수성구 지범로48길 27 (범물동),3,3,21,5,10.0,0,35.81448071,128.6438055,36.31,69.30000000000001,0,0.3405581787655368,29.771966121152605
개미유치원,대구광역시 달서구 상원로3길 19-5 (상인동),5,1,10,6,6.0,0,35.81100225,128.5353256,36.08,69.30000000000001,18,0.34021927224277154,29.70502791908872
대구방촌초등학교,대구광역시 동구 동촌로42길 35-14 (방촌동),4,5,24,5,8.0,0,35.88065514,128.6630347,38.96,92.5,0,0.34020313064222885,29.701839754665254
화니어린이집,대구광역시 수성구 동대구로7길 14-14 (두산동),2,1,11,4,7.0,0,35.834238,128.622789,33.37,69.30000000000001,12,0.34011354711106007,29.68414590663293
수성영희어린이집,대구광역시 수성구 신천동로86길 25 (수성동4가),2,1,16,4,7.0,0,35.86168383,128.6117861,35.25,1.6,7,0.34009454486905843,29.68039273037538
문화유치원,대구광역시 달서구 월배로83길 120-11 (송현동),3,2,10,4,6.0,0,35.83264361,128.5452448,32.11,69.30000000000001,5,0.3399498327691308,29.651810312701603
청구어린이집,대구광역시 동구 송라로 3-6 (신천동),1,1,10,2,6.0,0,35.86847567,128.618421,34.22,69.30000000000001,19,0.33947903066922297,29.558821113678253
사랑마을어린이집,대구광역시 달서구 진천로10길 12 (진천동),1,1,5,3,8.0,0,35.81303824,128.5253691,30.92,69.30000000000001,10,0.3389074506080383,29.44592702914106
효목어린이집,대구광역시 동구 효목로13길 23 (효목동),3,2,11,3,8.0,0,35.878173,128.641234,34.53,69.30000000000001,12,0.33830206339163726,29.32635561609272
계성어린이집,대구광역시 수성구 범어로 157 (범어동),1,1,17,4,20.0,0,35.863437,128.635247,36.68,62.8,7,0.33829268745987817,29.32450375437726
두류초등학교,대구광역시 서구 달구벌대로357길 22 (내당동),13,5,13,21,8.0,0,35.8616275,128.559932,30.86,477.8,6,0.3382581750863982,29.317687136594706
하늘빛유치원,"대구광역시 수성구 지범로40길 11 (범물동, 서한화성아파트)",1,1,7,4,15.0,0,35.81849094,128.6426091,36.31,36.0,13,0.3381194763399824,29.29029243011979
글나라어린이집,대구광역시 서구 국채보상로46길 31-27 (평리동),6,1,27,9,11.0,0,35.868026,128.557647,35.23,69.30000000000001,0,0.33778664035770084,29.224553234384317
신명유치원,대구광역시 북구 동변로20길 15 (동변동),4,8,18,3,9.0,0,35.9219255,128.6020137,44.37,69.30000000000001,4,0.3376250861912891,29.192644301657694
삼육초등학교,대구광역시 수성구 청수로 22-23 (중동),1,1,13,4,6.5,0,35.83976557,128.610697,33.28,36.6,10,0.33709308712568353,29.087567950040917
명지유치원,대구광역시 달서구 월배로28길 84 (진천동),4,2,10,7,6.0,0,35.81332941,128.5329179,30.92,69.30000000000001,0,0.33708879089868626,29.08671939242535
한국어린이집,대구광역시 달서구 중흥로8길 112 (송현동),2,2,12,6,10.0,0,35.82683456,128.5521334,32.11,69.30000000000001,0,0.33705782310949745,29.08060287358919
스콜라유치원(구프뢰벨유치원),대구광역시 남구 앞산순환로 467 (대명동),2,3,17,2,9.0,0,35.83248149,128.5760583,35.31,2.8,0,0.33699722866068066,29.068634725482294
비봉초등학교,대구광역시 서구 달서로45길 30 (비산동),16,4,12,14,10.0,0,35.88276492,128.568631,35.36,179.2,0,0.33680730544635407,29.03112255724934
 아이캔유치원,대구광역시 달서구 비슬로 2728-16 (대곡동),2,2,11,3,10.0,0,35.80876662,128.5148179,30.92,69.30000000000001,2,0.3363144014806759,28.933767968192026
두산초등학교,대구광역시 수성구 동대구로6길 31 (지산동),6,8,45,13,9.0,0,35.83259685,128.6260882,47.09,206.6,0,0.3356754530552055,28.807567804018262
대원유치원,대구광역시 북구 동북로26길 26 (산격동),4,3,17,8,9.0,0,35.89982276,128.6051253,35.18,69.30000000000001,0,0.33550294829193755,28.773495993873105
소망어린이집,대구광역시 달서구 앞산순환로61길 68 (송현동),3,3,11,5,8.0,0,35.83077848,128.5588127,32.11,69.30000000000001,0,0.335302608427119,28.733926409188648
선원초등학교,대구광역시 달서구 선원로33길 105 (용산동),3,2,19,5,12.0,0,35.86108823,128.5155245,33.27,83.4,2,0.33528608051607767,28.730661943695473
행복이가득한어린이집,대구광역시 서구 달서천로53길 18 (비산동),7,2,21,7,15.0,0,35.88566184,128.56224,35.36,69.30000000000001,0,0.3348798336606913,28.650423198593174
청림초등학교,대구광역시 수성구 고산로 51 (노변동),1,3,16,0,30.0,0,35.83563518,128.7033769,41.83,10.2,5,0.3347448950532346,28.623771165759887
성모유치원,대구광역시 중구 남산로4길 78 (남산동),3,1,25,9,10.5,0,35.86070072,128.5857647,33.32,69.30000000000001,0,0.3332848059377558,28.335385626745364
동변초등학교,대구광역시 북구 동변로 60 (동변동),2,3,43,3,9.0,0,35.91913074,128.6041638,44.37,3.25,13,0.3326666480762326,28.213291854384785
예원유치원,대구광역시 북구 칠성로 105-21 (칠성동2가),2,1,7,2,9.0,0,35.87931739,128.600701,31.38,69.30000000000001,16,0.3323918925934868,28.159024270886736
달산초등학교,대구광역시 북구 옥산로17길 37 (침산동),2,4,23,8,9.0,0,35.88770026,128.5851441,37.06,93.25,2,0.3323617034637024,28.153061546849585
상동어린이집,대구광역시 수성구 수성로32길 139 (상동),4,1,10,2,6.0,0,35.835277,128.612646,32.21,2.2,12,0.3323104192336585,28.142932281336012
대구삼성어린이집,대구광역시 중구 달구벌대로 2016-40 (남산동),2,1,20,4,7.5,0,35.864469,128.584301,33.32,69.30000000000001,13,0.3322963783371043,28.140159031759598
대구입석초등학교,대구광역시 동구 아양로 300 (입석동),1,1,21,0,30.0,0,35.89069277,128.6439976,37.55,10.5,3,0.3322155499689989,28.124194435998533
 가톨릭소화어린이집,대구광역시 달서구 월곡로51길 77 (상인동),6,4,21,3,10.0,0,35.81473892,128.5362016,36.08,69.30000000000001,4,0.33199835520527937,28.081295801701245
 영지어린이집,대구광역시 북구 산격로서9길 6-1 (산격동),3,4,23,4,9.0,0,35.8952123,128.6022434,35.18,69.30000000000001,0,0.3319943813137444,28.080510909299715
다인어린이집,대구광역시 서구 달서로7길 9 (내당동),4,0,4,2,30.0,0,35.8649326,128.5700955,30.86,78.0,4,0.33185211399255266,28.052411365462916
학산초등학교,대구광역시 달서구 월성로 76 (월성동),0,0,0,0,15.0,0,35.83110683,128.5260862,32.97,9.8,21,0.3312272788966058,27.92899875726692
가톨릭소화어린이집,대구광역시 남구 현충로39길 74 (대명동),3,3,23,7,7.0,0,35.85011603,128.5769832,35.31,69.30000000000001,4,0.3309726979884887,27.87871590012359
교동초등학교,대구광역시 북구 관음중앙로34길 4 (읍내동),4,3,22,10,9.0,0,35.9447886,128.5494726,37.86,54.5,4,0.33094646362506125,27.87353429103033
동양유치원,대구광역시 서구 평리로78길 8-12 (내당동),2,1,3,4,7.0,0,35.8654976,128.5651622,30.86,69.30000000000001,17,0.33089997289140094,27.86435179994559
봉덕초등학교,대구광역시 남구 효성로 71 (봉덕동),8,10,107,15,11.5,1,35.83968058,128.5968435,37.09,260.2,8,0.3307466141333558,27.83406156106046
계명유치원,대구광역시 남구 명덕로20길 24 (대명동),2,4,18,4,8.0,0,35.85645873,128.5793986,35.31,69.30000000000001,5,0.3306872573090108,27.82233785899223
황금초등학교,대구광역시 수성구 들안로32길 22 (황금동),4,5,28,12,9.0,0,35.84422116,128.618389,42.36,69.30000000000001,2,0.33058567490964963,27.802274087073386
행복한어린이집,대구광역시 달서구 화암로 301 (대곡동),1,1,10,2,12.0,0,35.80469338,128.516933,30.92,69.30000000000001,12,0.3305162387601214,27.78855959444652
구암어린이집,대구광역시 북구 구암로42길 13-20 (구암동),3,2,13,2,9.0,0,35.9302986,128.5630209,31.82,0.5,3,0.33028669074319134,27.74322104086764
동성초등학교,대구광역시 수성구 수성로 311 (수성동1가),2,4,27,3,19.0,0,35.85344576,128.6127129,35.25,250.0,12,0.3300610073911963,27.69864580609483
고산초등학교,대구광역시 수성구 달구벌대로 3067 (시지동),3,2,38,14,11.0,0,35.84395474,128.693198,41.83,54.2,5,0.3298351907630825,27.65404424765112
달서어린이집,대구광역시 달서구 대명천로8길 10 (성당동),2,1,11,3,8.0,0,35.83923761,128.5558724,30.44,69.30000000000001,13,0.32972693301133693,27.632662011622738
DGB아이꿈터어린이집,대구광역시 수성구 달구벌대로 2271-5 (수성동4가),2,3,15,3,8.0,0,35.860973,128.6108859,35.25,69.30000000000001,14,0.3293913376212003,27.56637779893371
동원초등학교,대구광역시 수성구 국채보상로 1000 (만촌동),2,1,35,4,25.0,0,35.86486838,128.639886,39.84,51.8,8,0.328896117260457,27.46856569339171
모란어린이집,대구광역시 수성구 지산로3길 115 (두산동),3,3,13,4,8.0,0,35.82497799,128.626288,33.37,69.30000000000001,9,0.32887671595973356,27.46473369813376
해오름유치원,대구광역시 달서구 도원남로 54 (도원동),0,0,0,0,25.0,0,35.80397398,128.5348468,31.93,69.30000000000001,18,0.32855394279850664,27.400982033188757
룸비니유치원,대구광역시 남구 대명남로 140 (대명동),4,3,26,3,13.0,0,35.83497147,128.5737033,35.31,71.0,6,0.32694447893570266,27.083093146354
대곡가야유치원,대구광역시 달서구 비슬로538길 7 (대곡동),2,2,13,7,8.0,0,35.80770731,128.5096029,30.92,69.30000000000001,5,0.3268547000571683,27.065360714816926
가야유치원,"대구광역시 달서구 성서동로 350 (용산동, 평화타운)",0,0,0,0,30.0,0,35.85114028,128.5164431,33.27,69.30000000000001,19,0.32635723439276704,26.967105134216606
난나유치원,"대구광역시 달서구 성서서로 330 (이곡동, 성서청남타운)",2,1,9,1,30.0,0,35.85406557,128.5003974,34.32,69.30000000000001,11,0.3258016996839518,26.857380203906157
호동어린이집,대구광역시 남구 희망로5길 19 (이천동),2,5,22,6,12.5,0,35.84884861,128.600145,41.53,69.30000000000001,12,0.3257503964560054,26.847247186073435
예현유치원,대구광역시 달서구 월배로75길 78 (송현동),2,3,13,5,10.0,0,35.83085801,128.5474352,32.11,69.30000000000001,5,0.32572272319307777,26.841781376650527
대구효신초등학교,대구광역시 동구 동부로34길 70 (신천동),2,5,20,5,6.0,0,35.87267001,128.6321105,34.22,64.0,0,0.3253953407103758,26.777119314083915
대구비산초등학교,대구광역시 서구 통학로 202 (평리동),9,4,24,5,15.0,0,35.87875905,128.5643247,35.23,183.2,11,0.32521260339844565,26.741026449860517
우주과학유치원,대구광역시 북구 오봉로6길 9-1 (노원동1가),3,3,14,2,9.0,0,35.8903643,128.5776159,35.22,69.30000000000001,19,0.3244278956875901,26.586037036019356
대구호산초등학교,대구광역시 달서구 달서대로109길 116 (호산동),3,3,35,1,20.0,0,35.84907047,128.4790049,35.93,240.4,21,0.32331986577540867,26.367187515068114
리라유치원,대구광역시 달서구 앞산순환로 225 (송현동),1,2,5,0,35.0,0,35.82397008,128.5537072,32.11,69.30000000000001,1,0.3232438371232337,26.352170922172796
다인유치원,대구광역시 북구 대현남로 34 (대현동),4,1,50,4,9.0,0,35.88114395,128.607228,35.87,69.30000000000001,10,0.32318103229996453,26.339766197954816
가나유치원,대구광역시 달서구 송현로7길 15 (상인동),2,3,24,4,9.0,0,35.82353,128.5454,32.11,69.30000000000001,4,0.3224995968943625,26.205174333208483
동학어린이집,대구광역시 남구 자유5길 16 (대명동),3,4,24,11,7.0,0,35.83750833,128.5840424,35.31,69.30000000000001,0,0.32227987449483325,26.161776459784143
리리유치원,대구광역시 수성구 신천동로34길 19 (중동),3,2,22,7,8.0,0,35.84040378,128.608955,33.28,69.30000000000001,11,0.32150045097098573,26.007830737798777
대구동부초등학교,대구광역시 동구 신암북로7길 22 (신암동),4,4,25,4,6.0,0,35.88802582,128.6198324,34.16,19.25,2,0.3213875765823693,25.98553665926823
반야유치원,대구광역시 남구 장전1길 92 (대명동),2,3,21,8,8.0,0,35.84023286,128.5760702,35.31,69.30000000000001,11,0.3209909006491825,25.90718828888904
대천초등학교,대구광역시 북구 구암로21길 54 (읍내동),3,3,21,4,9.0,0,35.93721038,128.554364,37.86,16.0,17,0.32057227951315687,25.824505471329616
동덕초등학교,대구광역시 중구 동덕로26길 20 (삼덕동2가),3,2,31,1,9.0,0,35.864739,128.604646,30.23,17.5,1,0.3196124014506309,25.634917760884303
경상유치원,대구광역시 남구 현충로48길 31-9 (대명동),2,4,33,8,9.0,0,35.85321709,128.5854639,35.31,69.30000000000001,0,0.3192181109840653,25.557040549470717
경북대학교 사범대학 부설초등학교,대구광역시 중구 달구벌대로 2150 (봉산동),2,2,12,2,8.0,0,35.86358293,128.5980661,29.56,69.30000000000001,15,0.31912299950841094,25.53825486448597
파호초등학교,대구광역시 달서구 달서대로109안길 76 (호산동),3,5,18,7,15.0,0,35.85058152,128.4815078,35.93,153.2,10,0.31907034775002174,25.527855495322704
"특수학교(광명,영화,보명,보건,덕희)5개교",대구광역시 남구 성당로50길 33 (대명동),3,5,28,5,7.0,0,35.85594776,128.575077,35.31,69.30000000000001,4,0.3185350032844389,25.422118386108707
상지유치원,대구광역시 서구 달서로 33 (내당동),7,2,20,7,8.0,0,35.86586634,128.5703329,30.86,69.30000000000001,8,0.31841713079865663,25.398837121981106
경동초등학교,대구광역시 수성구 청호로76길 12 (범어동),3,4,47,11,10.0,0,35.85220526,128.6393816,36.68,205.8,7,0.3183398478938307,25.383572798777426
스카이유치원,대구광역시 달서구 당산로 12 (본리동),2,1,11,2,9.0,0,35.8386,128.5451,32.6,69.30000000000001,29,0.317979811183454,25.312461125054035
중앙초등학교,대구광역시 수성구 만촌로 125 (만촌동),3,5,35,10,17.0,0,35.87001293,128.6403507,39.84,211.6,13,0.31797270308241615,25.311057187768682
신암초등학교,대구광역시 북구 경대로 21 (대현동),5,3,49,1,9.0,0,35.88376396,128.6116222,35.87,5.5,2,0.3175160666512125,25.220865882354325
효성초등학교,대구광역시 달서구 송현로 81 (송현동),2,1,19,0,20.0,0,35.82406479,128.5429839,32.11,23.0,12,0.31700155401873636,25.119243316119555
월곡초등학교,대구광역시 달서구 상인로 40 (상인동),2,2,18,3,20.0,0,35.81216502,128.5492651,36.08,1.2,12,0.3166820834428907,25.05614395236304
동인초등학교,대구광역시 중구 국채보상로 728 (동인동4가),3,5,23,1,10.0,0,35.86808366,128.6095066,35.43,0.25,4,0.3163301012863956,24.986623151989807
세화유치원,대구광역시 서구 서대구로5길 56 (내당동),6,4,15,6,12.0,0,35.86000712,128.5504904,30.86,69.30000000000001,0,0.3162630969767255,24.973388977612597
자연과예술유치원,대구광역시 달서구 월배로5길 11-4 (유천동),2,1,29,5,8.0,0,35.81210506,128.516097,30.92,69.30000000000001,13,0.31621464610989986,24.963819336145438
대구세명학교,대구광역시 달서구 새방로 62 (용산동),1,1,9,0,30.0,0,35.86341822,128.5243182,33.27,69.30000000000001,18,0.3154388961205992,24.810599182366257
동일초등학교,대구광역시 수성구 들안로 311 (수성동2가),2,5,25,4,26.0,0,35.8581009,128.6168809,35.25,256.4,14,0.3142652469508286,24.57878905184059
하나렘어린이집,대구광역시 달서구 월배로 235 (상인동),1,2,11,0,35.0,0,35.81996355,128.5388941,36.08,69.30000000000001,16,0.314232351895104,24.572291874185147
큰사랑어린이집,대구광역시 달서구 월배로75길 132 (송현동),2,2,26,7,8.0,0,35.83342657,128.5474861,32.11,69.30000000000001,12,0.3137720446401727,24.48137553598471
대구세천초등학교,대구광역시 달성군 다사읍 세천로 182-9 ,2,5,32,4,9.0,0,35.87434699,128.4814697,40.57,62.8,19,0.31374228552787586,24.475497745684553
사랑숲유치원,"대구광역시 수성구 용학로 272 (범물동, 범물창신태성한라맨션)",2,2,26,2,15.0,0,35.82049947,128.6393843,36.31,2.4,17,0.31337872531851385,24.40369013762173
현풍초등학교,대구광역시 달성군 현풍읍 비슬로134길 167-6 ,20,7,82,22,9.0,0,35.69810979,128.4484673,56.15,69.4,1,0.313198079710623,24.36801041064485
시지초등학교,대구광역시 수성구 달구벌대로631길 17 (매호동),4,4,53,10,15.0,0,35.843725,128.7031926,41.83,69.30000000000001,4,0.31309002931823815,24.346669130637824
 칠곡한솔유치원,대구광역시 북구 태암로18길 20-7 (구암동),4,4,22,7,9.0,0,35.9259879,128.5550239,31.82,69.30000000000001,3,0.3128128187705253,24.291916641645766
천내초등학교,대구광역시 달성군 화원읍 성천로 192 ,5,7,59,11,9.0,0,35.80943449,128.501982,49.99,11.0,6,0.31213952747161305,24.15893333802945
 코오롱아인슈타인유치원,"대구광역시 수성구 수성로 412 (수성동4가, 수성보성타운)",1,2,15,8,20.0,0,35.861991,128.6144895,35.25,103.8,20,0.3115845496304593,24.049318395923837
달서초등학교,대구광역시 서구 국채보상로34길 35 (중리동),20,7,45,17,26.0,0,35.8668447,128.5505173,50.57,154.2,8,0.3115578356122587,24.04404204911983
대구송정초등학교,대구광역시 동구 안심로90길 9 (괴전동),4,10,45,4,8.0,0,35.87060736,128.7340267,45.96,137.25,12,0.31154801725109654,24.04210280216157
만촌초등학교,대구광역시 수성구 국채보상로214길 33 (만촌동),5,4,39,14,8.0,0,35.86669044,128.6479211,39.84,27.8,4,0.3109931313623238,23.932506021780945
노전초등학교,대구광역시 달서구 한실로 43 (도원동),2,1,19,0,25.0,0,35.80816336,128.5312014,31.93,85.4,19,0.3108185025559523,23.898014687026762
동해유치원,대구광역시 달서구 장기로 50 (성당동),2,2,14,3,25.0,0,35.8432168,128.5549372,30.44,69.30000000000001,7,0.31035312849007357,23.806097591413184
칠곡혜성유치원,대구광역시 북구 학정로42길 40 (구암동),6,5,20,5,9.0,0,35.9267826,128.5589679,31.82,69.30000000000001,4,0.30998505112369,23.733397789340653
참좋은어린이집,대구광역시 남구 중앙대로 126 (봉덕동),1,2,15,0,40.0,0,35.84435136,128.5910004,37.09,69.30000000000001,16,0.30954056944012776,23.645607195919137
대구신성초등학교,대구광역시 동구 동북로71길 29 (신암동),4,3,31,12,6.0,0,35.89012297,128.6289427,34.16,9.5,2,0.3090685257332085,23.552372764256596
동산초등학교,대구광역시 수성구 동대구로42길 29 (범어동),3,5,24,17,9.0,0,35.849159,128.6280729,36.68,72.0,0,0.3087762477856441,23.494644278675246
롯데가야유치원,"대구광역시 달서구 대명천로 101 (본리동, 본리 롯데캐슬)",2,2,24,8,15.0,0,35.83903418,128.5471926,32.6,69.30000000000001,11,0.30865461866801797,23.47062103360436
신흥초등학교,대구광역시 달서구 두류공원로 257 (두류동),5,5,33,6,8.0,0,35.85636069,128.5563354,32.95,69.8,1,0.3083854183932522,23.41745067193385
남대구초등학교,대구광역시 남구 중앙대로47길 55 (대명동),4,7,47,7,7.0,0,35.85355805,128.5864853,35.31,167.0,0,0.3082815326196448,23.396931955302037
종로초등학교,대구광역시 중구 경상감영길 49 (서문로1가),3,3,36,6,9.0,0,35.87249623,128.5897066,29.56,86.75,2,0.30761753038467815,23.26578335594075
월서유치원,대구광역시 달서구 조암남로16길 34 (월성동),3,3,11,3,25.0,0,35.822893,128.5225789,32.97,69.30000000000001,13,0.30716486138590404,23.176375667175243
대구한실초등학교,대구광역시 달서구 한실로6길 108 (대곡동),5,2,25,8,10.0,0,35.79831438,128.5285689,30.92,69.30000000000001,12,0.30662706769145015,23.070154805167903
아인슈타인어린이집,대구광역시 북구 동천로 5-13 (동천동),3,2,23,4,9.0,0,35.93229877,128.5569404,29.97,69.30000000000001,17,0.306431311956383,23.031490642430132
 하늘어린이집,대구광역시 북구 고성로34길 90 (고성동1가),4,3,26,7,9.0,0,35.8793927,128.5881726,32.37,69.30000000000001,13,0.3060804807468193,22.962197168216427
삼성유치원,대구광역시 북구 동암로 21-19 (읍내동),7,6,41,8,9.0,0,35.9474763,128.5535989,37.86,69.30000000000001,5,0.30386962553304453,22.525526100849135
성산어린이집,대구광역시 서구 옥산로6길 9 (원대동3가),3,4,11,7,8.0,0,35.885754,128.578864,29.51,69.30000000000001,11,0.30365559271236753,22.48325198915048
동천초등학교,대구광역시 수성구 상록로16길 20 (범어동),6,5,64,18,13.5,0,35.86584544,128.6252838,36.68,426.0,17,0.3028989903163032,22.33381372028349
용전초등학교,대구광역시 달서구 용산로 260 (용산동),3,2,34,10,20.0,0,35.86109075,128.5312555,33.27,55.2,4,0.3022146639257927,22.198650850498993
중동어린이집,대구광역시 수성구 희망로 121 (중동),1,3,9,0,26.5,0,35.84762097,128.612134,33.28,6.0,15,0.3019269815860579,22.141830053925784
문성초등학교,대구광역시 북구 복현로 180 (복현동),6,5,33,4,9.0,0,35.9058108,128.6203544,37.46,1.75,13,0.30185391561788344,22.127398627520208
달서유치원,대구광역시 서구 국채보상로 342 (비산동),7,3,24,6,35.0,0,35.871551,128.568131,35.36,69.30000000000001,4,0.30171670428965763,22.10029770441229
범어초등학교,대구광역시 수성구 달구벌대로489길 55 (범어동),6,7,53,9,10.0,0,35.86056415,128.6334733,36.68,156.8,0,0.3009485114427815,21.94857017910928
대구화동초등학교,대구광역시 달성군 화원읍 성암로 38 ,6,9,56,11,9.0,0,35.79954584,128.5096929,49.99,48.0,11,0.30047770159800313,21.85557945037884
수성초등학교,대구광역시 수성구 상화로5길 40 (상동),4,2,37,13,7.5,0,35.83721988,128.6105947,32.21,69.30000000000001,10,0.2998909413103923,21.739687084617675
환타랜드유치원,대구광역시 북구 대천로18길 6 (동천동),4,4,21,5,9.0,0,35.9364615,128.5580673,29.97,69.30000000000001,12,0.2996706174802793,21.696170421263847
북비산초등학교,대구광역시 서구 통학로48길 7 (비산동),14,7,22,11,14.0,0,35.88154552,128.5645921,35.36,87.4,2,0.29738968921696796,21.245659065693072
원만사유치원,대구광역시 중구 달구벌대로 2013 (동산동),1,1,9,0,43.5,0,35.8658472,128.58387,29.56,69.30000000000001,11,0.29696004192292286,21.160798446457036
복현초등학교,대구광역시 북구 공항로 58 (복현동),3,4,44,5,9.0,0,35.8976053,128.6215383,37.46,48.0,20,0.29692079975258256,21.153047635684114
대구내당초등학교,대구광역시 달서구 명덕로 22-9 (두류동),6,3,31,12,6.0,0,35.86063851,128.5723871,32.95,1.4,8,0.29663760889873325,21.097113962755845
장산초등학교,대구광역시 달서구 장산로 30 (용산동),3,3,24,1,30.0,0,35.85483742,128.5265307,33.27,158.6,24,0.29614476034309434,20.99977031786206
범일초등학교,대구광역시 수성구 범안로4길 22 (범물동),4,5,38,14,10.0,0,35.81631492,128.6388291,36.31,48.8,4,0.29430325831386017,20.63605104232806
삼덕초등학교,대구광역시 중구 달구벌대로447길 10 (삼덕동3가),3,5,29,4,6.0,0,35.863588,128.6078431,30.23,32.0,8,0.29384402159613077,20.545346148377654
서대구초등학교,대구광역시 서구 서대구로63길 28-13 (비산동),13,4,26,14,20.0,0,35.8894468,128.5577335,35.36,80.6,10,0.29133105160102735,20.04900369990487
동대구초등학교,대구광역시 동구 신암남로 45 (신암동),4,8,37,6,8.0,0,35.87969333,128.62097,34.16,97.75,4,0.29114191379441146,20.011646659344326
숙천초등학교,대구광역시 동구 숙천로 17 (숙천동),4,4,50,3,8.0,0,35.87632564,128.7530358,29.56,51.5,4,0.2911186807856941,20.007057854681065
대구감천초등학교,대구광역시 달서구 구마로12길 60 (월성동),4,5,38,12,15.0,0,35.83526704,128.5330982,32.97,84.4,0,0.2907541036304847,19.935049387319154
채송화유치원,대구광역시 북구 학정로48길 42-6 (구암동),5,6,25,11,9.0,0,35.92723501,128.5605621,31.82,69.30000000000001,4,0.2904640230863068,19.877754915904006
대구북동초등학교,대구광역시 달성군 논공읍 논공로11길 18 ,15,15,96,22,9.0,0,35.72947978,128.4413202,58.89,287.4,3,0.29001601830148893,19.789268466699557
 마리아유치원,대구광역시 수성구 범어천로 90 (범어동),4,16,60,14,16.5,1,35.85676822,128.6229808,36.68,101.2,15,0.28895472025940816,19.579649064242638
대구남부초등학교,대구광역시 달서구 야외음악당로15길 46 (성당동),5,5,37,12,8.0,0,35.84443849,128.5499641,30.44,101.8,4,0.2880614765429345,19.403222455814625
대구효목초등학교,대구광역시 동구 화랑로27길 25 (효목동),5,6,24,14,8.0,0,35.87600495,128.641577,34.53,2.5,5,0.28602214790330543,19.000429994222774
칠곡초등학교,대구광역시 북구 칠곡중앙대로110길 5 (읍내동),7,10,71,22,9.0,0,35.94517034,128.5517715,37.86,442.5,7,0.28363238990774886,18.528423429447557
성서초등학교,대구광역시 달서구 달구벌대로 1339 (이곡동),3,3,16,3,50.0,0,35.85196007,128.5144445,34.32,36.2,8,0.2828594085176825,18.375750108032253
대구서재초등학교,대구광역시 달성군 다사읍 서재로 100 ,10,6,49,13,9.0,0,35.87192218,128.4983801,40.57,5.0,12,0.2821385583623256,18.233373345958302
대구초등학교,대구광역시 중구 명륜로23길 80 (봉산동),4,8,45,11,7.5,0,35.8640369,128.5953696,29.56,220.75,2,0.28178753405483586,18.164041732531793
내서초등학교,대구광역시 서구 달구벌대로371길 35 (내당동),13,8,28,20,9.0,0,35.86381875,128.5667588,30.86,201.0,0,0.2803875732146391,17.887532266623634
태전초등학교,대구광역시 북구 칠곡중앙대로75길 16 (태전동),9,10,40,12,9.0,0,35.97397,128.5345,37.86,65.0,0,0.2783767684602169,17.490373622805627
서도초등학교,대구광역시 서구 평리로 395 (평리동),19,9,25,14,21.0,0,35.86727153,128.5653531,35.23,167.2,4,0.27817270639197933,17.450068857214784
옥산초등학교,대구광역시 북구 칠성시장로23길 55 (칠성동2가),5,7,36,17,9.0,0,35.88089463,128.5978735,31.38,142.25,2,0.27779820823525336,17.376100870163565
대구성남초등학교,대구광역시 달서구 성당로47길 35 (두류동),5,6,27,10,8.0,0,35.85332922,128.5722902,32.95,6.0,12,0.27740408240789954,17.29825617701708
함지초등학교,대구광역시 북구 동천로 33 (동천동),4,6,42,6,9.0,0,35.93475358,128.5578616,29.97,72.5,8,0.2770737893639728,17.233019242849316
서부초등학교,대구광역시 서구 달서로26길 25 (비산동),15,7,25,23,13.0,0,35.87387969,128.5737138,35.36,49.6,0,0.27387240814523073,16.600707119862815
경운초등학교,대구광역시 서구 평리로54길 16 (내당동),19,7,14,26,10.0,0,35.86087951,128.552788,30.86,112.6,0,0.27282777476746534,16.39437919335085
범물초등학교,대구광역시 수성구 지범로41길 33 (범물동),3,5,48,14,13.5,0,35.82148442,128.6448572,36.31,88.8,19,0.27104051557219905,16.041373543954922
남덕초등학교,대구광역시 남구 앞산순환로93길 33 (대명동),12,7,71,14,7.0,0,35.83304211,128.5739489,35.31,71.6,0,0.2680913507283776,15.458877253754705
대성초등학교,대구광역시 서구 국채보상로 426 (비산동),7,8,34,5,35.0,0,35.87040591,128.5771526,35.36,69.2,6,0.263138849631099,14.480697440435355
대구진월초등학교,대구광역시 달서구 진천로4길 32 (진천동),4,7,42,15,8.0,0,35.81090267,128.5282878,30.92,9.6,0,0.2613727715342352,14.131875318205658
강북초등학교,대구광역시 북구 구암서로 50 (구암동),3,5,45,8,9.0,0,35.9408343,128.566782,31.82,48.0,26,0.25893773941828474,13.65092655841317
대구동신초등학교,대구광역시 동구 송라로 123 (신암동),4,7,59,12,8.0,0,35.87827534,128.6150277,34.16,95.5,17,0.2568433125385014,13.237251517451892
왕선초등학교,대구광역시 달성군 다사읍 대실역북로 93 ,10,11,77,15,9.0,0,35.863152,128.465206,40.57,271.4,21,0.2540683098764521,12.689154397914521
남산초등학교,대구광역시 중구 남산로 70 (남산동),3,6,62,5,20.5,0,35.863204,128.5827598,33.32,100.0,22,0.25092337570373424,12.067991260028235
계성초등학교,대구광역시 중구 달성로 15 (대신동),3,3,39,5,18.0,0,35.86566471,128.5811278,18.69,26.75,4,0.25087575627733905,12.058585838261198
성곡초등학교,대구광역시 달서구 선원남로 127 (이곡동),2,8,33,13,25.0,0,35.85809784,128.5135151,34.32,69.30000000000001,13,0.24934652332296434,11.756543541561044
남명초등학교,대구광역시 남구 큰골4길 41 (대명동),7,9,68,15,11.5,0,35.8343637,128.5819826,35.31,43.4,1,0.2459861617605476,11.092830847460569
영선초등학교,대구광역시 남구 영선길 96 (이천동),7,11,63,23,8.0,0,35.85290101,128.5960142,41.53,13.2,0,0.24507976132477438,10.913805625326962
구암초등학교,대구광역시 북구 학정로 245 (구암동),4,8,63,15,9.0,0,35.92814416,128.5577585,31.82,69.30000000000001,8,0.24155949455504017,10.218509688180148
대곡초등학교,대구광역시 달서구 도원남로 60 (도원동),5,5,49,12,25.0,0,35.8032986,128.5357486,31.93,69.30000000000001,24,0.23793079486141977,9.501796916355007
송현초등학교,대구광역시 달서구 송현로 128 (송현동),7,8,36,20,20.0,0,35.82868737,128.5448304,32.11,0.2,11,0.22695172142438996,7.333295023249992
대구남송초등학교,대구광역시 달서구 송현로 192 (본동),4,7,57,9,20.0,0,35.83490543,128.5453631,30.61,69.30000000000001,27,0.22258234076712832,6.470288661072712
대구장성초등학교,대구광역시 달서구 달구벌대로 1429-11 (장기동),6,13,48,19,8.0,0,35.85035905,128.5232345,38.33,9.2,13,0.22202323671523175,6.359858741650622
명덕초등학교,대구광역시 중구 남산로2길 125 (남산동),12,10,88,23,9.5,0,35.85754073,128.5890267,33.32,155.75,4,0.22031505073055974,6.022471022843376
 효명초등학교,대구광역시 남구 앞산순환로 707 (봉덕동),8,11,79,10,17.5,0,35.83464799,128.6010893,37.09,13.4,14,0.2141368491641157,4.802200307863745
수창초등학교,대구광역시 중구 달성로22길 30 (수창동),7,12,77,30,18.5,0,35.8742603,128.5834453,29.56,426.5,11,0.208908726346162,3.7695818184126706
대남초등학교,대구광역시 달서구 월배로68길 91 (송현동),9,9,85,27,10.0,0,35.82418641,128.5517497,32.11,43.2,0,0.20704274924757404,3.401028415979717
대덕초등학교,대구광역시 남구 대명서로 28 (대명동),9,16,88,19,11.5,0,35.8304316,128.561677,35.31,135.6,4,0.19121931947726198,0.2757066291150893
달성초등학교,대구광역시 서구 고성로 127 (원대동1가),33,14,57,19,15.0,0,35.88281761,128.5792117,29.51,80.4,7,0.18982342338062716,0.0
